id,city,name,address,neigborhood,zip,county,type,latitude,longitude
16604,NYC,BLISS DELI & GROCERY CORP,4622 QUEENS BOULEVARD,SUNNYSIDE,11104,NEW YORK CITY,GROCERY SUPERMARKET,40.742926268000076,-73.91821291099996
16497,NYC,2355 DELI & GROCERY CORP,2355 GRAND CONCOURSE,BRONX,10468,BRONX,CONVENIENCE STORE,40.85901719700007,-73.89924838099995
16503,NYC,4G DELI CORP,11316 SUTPHIN BOULEVARD,JAMAICA,11435,QUEENS,GROCERY SUPERMARKET,40.68646109600007,-73.79406595499995
16396,NYC,124 STOP 1 FOOD MART INC,124 UNION STREET,BROOKLYN,11231,BROOKLYN,GROCERY SUPERMARKET,40.68419413200007,-74.00244823299994
16925,NYC,KAID ABDULLA NAGI,2185 PACIFIC STREET,BROOKLYN,11233,BROOKLYN,GROCERY SUPERMARKET,40.675747510000065,-73.91400869999995
16529,NYC,"CAMPOS BAGELS & DELI, INC",3962 RICHMOND  AVENUE,STATEN ISLAND,10312,NEW YORK CITY,GROCERY SUPERMARKET,40.54162456100005,-74.16267723099998
16241,NYC,1224 MANHATTAN DELI CORP/DELI NASSAU,183 NASSAU AVENUE,BROOKLYN,11222,NEW YORK CITY,DELICATESSEN,40.725407405000055,-73.94587905399999
16732,NYC,SAI NEWS INC,11327A QUEENS BOULEVARD,FOREST HILLS,11375,QUEENS,GROCERY SUPERMARKET,40.71769739000007,-73.83531097299993
16366,NYC,MARINA GOURMET DELI INC,246 EAST 23RD STREET,NEW YORK,10010,MANHATTAN,CONVENIENCE STORE,40.73805461100005,-73.98136139699994
16803,NYC,QUICK DELI & CANDY CORP,8202 ROOSEVELT  AVENUE,JACKSON HEIGHTS,11372,QUEENS,GROCERY SUPERMARKET,40.74763296700007,-73.88371764399994
16089,NYC,589 BAKERY INC,589 1ST  AVENUE,NEW YORK,10016,NEW YORK CITY,CONVENIENCE STORE,40.74355942700004,-73.97370617099995
16801,NYC,YAN LIN,155 YORK STREET,BROOKLYN,11201,BROOKLYN,GROCERY SUPERMARKET,40.70146850800006,-73.98456894599997
16211,NYC,NY MC DELI INC,6302 BROADWAY,WOODSDE,11377,NEW YORK CITY,GROCERY SUPERMARKET,40.74993489700006,-73.89908170899997
16294,NYC,SHIV DELI & GROCERY INC,3522 CLARENDON ROAD,BROOKLYN,11203,BROOKLYN,CONVENIENCE STORE,40.643553137000026,-73.94316918799996
16895,NYC,166ST DELI GROCERY CORP,182 B EAST 166TH STREET,BRONX,10456,BRONX,GROCERY SUPERMARKET,40.83155575100005,-73.91878890299995
16578,NYC,JAYUYA DELI GROCERY,2958 WHITE PLAINS  ROAD,BRONX,10467,BRONX,GROCERY SUPERMARKET,40.86957926400004,-73.86715424399995
16967,NYC,HILLSIDE #1 DELI CORP,16401 HILLSIDE AVENUE,JAMAICA,11432,QUEENS,GROCERY SUPERMARKET,40.70888713000005,-73.79870827599996
16275,NYC,BURNSIDE'S GOURMET DELI & GROCERY,38 WEST BUENSIDE AVENUE,BRONX,10453,BRONX,CONVENIENCE STORE,40.85379962900004,-73.90902371799996
16409,NYC,M&E ENERGY CORP,3620 QUEENS BOULEVARD,LONG ISLAND CITY,11101,NEW YORK CITY,TOBACCO RETAIL,40.74413123700003,-73.92867241999994
16230,NYC,GRA CONVENIENT II INC,7626 5TH  AVENUE,BROOKLYN,11209,BROOKLYN,CONVENIENCE STORE,40.628143616000045,-74.02323202999997
17003,NYC,D & J GROCERY CORP.,927 GRAND  STREET,BROOKLYN,11211,BROOKLYN,GROCERY SUPERMARKET,40.712847613000065,-73.93710724699997
16204,NYC,LISA GROCERY & DELI,261 E 172TH STREET,BRONX,10457,BRONX,PHARMACY,40.849331720000066,-73.89809272799994
16585,NYC,99 ESQUINA GROCERY AND DELI CORP,99 EAST 198TH STREET,BROOKLYN,10468,BROOKLYN,GROCERY SUPERMARKET,40.870635238000034,-73.89173534999998
16553,NYC,"ONE'S FRUIT & GROCERY OF, NYC",315 1ST AVENUE,NEW YORK,10003,NEW YORK CITY,GROCERY SUPERMARKET,40.73402069900004,-73.98067606299998
16481,NYC,SWEET SIXTEEN PARTY & GIFTS CORP,200 BEACH 116TH STREET,FAR ROCKAWAY,11694,NEW YORK CITY,CONVENIENCE STORE,40.57976988400003,-73.83704520799995
16048,NYC,DISCOUNT DAIRY FARM GROCEY INC,2730 OCEAN AVENUE,BROOKLYN,11229,BROOKLYN,CONVENIENCE STORE,40.59473359200007,-73.95057615499996
16371,NYC,QUEENS BIJOUX CORP,13854 84TH  DRIVE,BRIARWOOD,11435,QUEENS,CONVENIENCE STORE,40.709133345000055,-73.81816653799996
16802,NYC,SAMIRA KENZ,10707 ROCKAWAY  BOULEVARD,QUEENS,11417,QUEENS,GROCERY SUPERMARKET,40.67838744300008,-73.83197493999995
16045,NYC,NO 1 DELI CORP.,819 FOREST AVENUE,STATEN ISLAND,10310,STATEN ISLAND,CONVENIENCE STORE,40.62896471300007,-74.11657481999998
16117,NYC,QUICK PICK GROCERY & 99 PLUS,280 BROAD WAY,STATEN ISLAND,10310,STATEN ISLAND,CONVENIENCE STORE,40.63439437300008,-74.11718570299996
16608,NYC,LOPEZ JER DELI GROCERY INC,1185 BROADWAY,BROOKLYN,11221,BROOKLYN,CONVENIENCE STORE,40.692526533000034,-73.92733774299995
17001,NYC,JOE SOUTH SIDE DELI,11577 SUTPHIN BOULEVARD,NEW YORK,11434,QUEENS,GROCERY SUPERMARKET,40.68278733300008,-73.79257523799998
16420,NYC,FAMILY EXPRESS DELI GROCERY,628 NOSTRAND  AVENUE,BROOKLYN,11216,BROOKLYN,CONVENIENCE STORE,40.67707388700006,-73.94985701999997
17014,NYC,JAMAICA MINI MARKET INC,17103 JAMAICA  AVENUE,JAMAICA,11432,QUEENS,GROCERY SUPERMARKET,40.707537442000046,-73.78850635999999
16168,NYC,DEE NEWSTAND AND CANDY CORP,75 VARET STREET,BROOKLYN,11206,NEW YORK CITY,GROCERY SUPERMARKET,40.703082893000044,-73.94237433499995
16492,NYC,SEDGWICK DELI & GROCERY CORP,2701 SEDGWICK  AVENUE,BRONX,10468,NEW YORK CITY,GROCERY SUPERMARKET,40.87000584900005,-73.90321585699996
16799,NYC,SSAR INC,2321 65TH STREET,BROOKLYN,11204,NEW YORK CITY,GROCERY SUPERMARKET,40.61218512800008,-73.97862588899994
16978,NYC,SAYEDGE DELI LTD,5800 MOSHOLU  AVENUE,BRONX,10471,BRONX,GROCERY SUPERMARKET,40.90509657300004,-73.89717839299993
16599,NYC,152ND STREET FOOD CORP,835 EAST 152ND STREET,BRONX,10455,BRONX,GROCERY SUPERMARKET,40.815228096000055,-73.90414478799994
16598,NYC,BROOKLYN SMOKE SHOP INC,198 FLATBUSH AVENUE,BROOKLYN,11217,BROOKLYN,TOBACCO RETAIL,40.68164161400006,-73.97573653099994
16894,NYC,"SHOHATEE, ALI A",2266 1ST AVENUE,NEW YORK,10035,MANHATTAN,GROCERY SUPERMARKET,40.796341787000074,-73.93511418399999
16359,NYC,GOLD STREET MARKET INC.,257 GOLD STREET,BROOKLYN,11201,BROOKLYN,CONVENIENCE STORE,40.696887960000026,-73.98312484899998
16170,NYC,GREEN FAMILY MART NYC INC,2110 30TH  AVENUE,ASTORIA,11102,NEW YORK CITY,GROCERY SUPERMARKET,40.76966505100006,-73.92739252299998
16313,NYC,"WAHIB, MOHAMED A.",269 TROY AVENUE,BROOKLYN,11213,BROOKLYN,CONVENIENCE STORE,40.66986622600007,-73.93654429399999
16914,NYC,HEIGHTS TATOO,1610 ST NICHOLAS  AVENUE,NEW YORK,10040,NEW YORK CITY,OTHER,40.85534110400005,-73.92928418499997
16423,NYC,RAMSES II DELI CORP.,732  10TH AVENUE,NEW YORK,10019,NEW YORK CITY,DELICATESSEN,40.76458099300004,-73.99183488299997
16595,NYC,1217 MARINA INC,11520 BEACH CHANNEL DRIVE,ROCKAWAY PK,11694,QUEENS,GROCERY SUPERMARKET,40.581917383000075,-73.83799725199998
16755,NYC,SMILEY NEWS INC.,2271 MCDONALD AVENUE,BROOKLYN,11223,BROOKLYN,GROCERY SUPERMARKET,40.596965589000035,-73.97322480599996
16404,NYC,CASANOVA GROCERY CORP,108-19 JAMAICA AVENUE,RICHMOND HILL,11418,QUEENS,CONVENIENCE STORE,40.69580634500005,-73.83894133499996
16631,NYC,NEW DREAMLAND DELI GROCERY CORP,501 GRANDVIEW AVENUE,RIDGEWOOD,11385,NEW YORK CITY,GROCERY SUPERMARKET,40.70971840000004,-73.90762205599998
16863,NYC,TANG'S AMBER MINI MARKET INC,868 UTICA AVENUE,BROOKLYN,11203,BROOKLYN,GROCERY SUPERMARKET,40.65199742900006,-73.93047652599995
16975,NYC,NOME AVENUE DELI CORP,452 NOME AVENUE,STATEN ISLAND,10314,STATEN ISLAND,GROCERY SUPERMARKET,40.59006562900004,-74.16476512099996
16069,NYC,BRADFORD FRIENDSHIP DELI GROCERY INC,5 BRADFORD STREET,BROOKLYN,11207,NEW YORK CITY,GROCERY SUPERMARKET,40.67972081400006,-73.89394636799994
16778,NYC,EASY GRAB & GO CORP,374 VAN DUZER  STREET,STATEN ISLAND,10304,NEW YORK CITY,CONVENIENCE STORE,40.62910085500005,-74.07962108099997
16388,NYC,163 ASHLEY DELI GROCERY INC,3244 THIRD AVENUE,BRONX,10451,NEW YORK CITY,GROCERY SUPERMARKET,40.823924143000056,-73.90874165299994
16057,NYC,EXCELL DISCOUNT AND GROCERY CORP,87 PITT STREET,NEW YORK,10002,NEW YORK CITY,CONVENIENCE STORE,40.71852863300006,-73.98240276099995
16310,NYC,DOUBLE SEVEN DELI & GROCERY INC,77 VAN BUREN STREET,BROOKLYN,11221,NEW YORK CITY,GROCERY SUPERMARKET,40.69015816900003,-73.94254329599994
16655,NYC,MANHATTAN SMOKE SHOP & CANDY CORP,41B MADISON STREET,NEW YORK,10038,NEW YORK CITY,GROCERY SUPERMARKET,40.68394385800008,-73.95747856899999
16217,NYC,PAL MINI MART CORP,4421 4421 AVENUE,BKLYN,11220,BROOKLYN,GROCERY SUPERMARKET,40.64196780300006,-74.00956233999995
16804,NYC,GOLDEN LION CHENG LE INC,6831 FRESH MEADOW  LANE,FRESH MEADOWS,11365,QUEENS,CONVENIENCE STORE,40.73328363600007,-73.79451734899999
16828,NYC,PIN DELI & GROCERY CORP,9101 80TH STREET,WOODHAVEN,11421,QUEENS,CONVENIENCE STORE,40.68653918600006,-73.86082656099995
17032,NYC,A & B FRUIT MARKET OF NY CORP.,1208 NOSTRAND  AVENUE,BROOKLYN,11225,BROOKLYN,GROCERY SUPERMARKET,40.657707379000044,-73.95033605499998
16910,NYC,EMPIRE TOBACCO SHOP CORP,521 MYRTLE  AVENUE,BROOKLYN,11205,BROOKLYN,GROCERY SUPERMARKET,40.69370838400005,-73.96383410099997
15726,NYC,JSK PRODUCE INC,1368 YORK AVENUE,NEW YORK,10021,NEW YORK CITY,GROCERY SUPERMARKET,40.76742139900006,-73.95329417899995
16107,NYC,GERARD FOOD MARKET INC,740 GERARD AVENUE,BRONX,10451,BRONX,GROCERY SUPERMARKET,40.824633953000045,-73.92658247699995
16862,NYC,MARLINE PRICE RITE DELI GROCERY INC,9501 SUTPHIN BOULEVARD,JAMAICA,11435,QUEENS,CONVENIENCE STORE,40.69819802000006,-73.80628307999996
16176,NYC,FAMILY DOLLAR STORES OF NEW YORK INC,3382 ATLANTIC  AVENUE,BROOKLYN,11208,NEW YORK CITY,OTHER,40.681523895000055,-73.87179306799999
15807,NYC,STOP 1 MONEY MARKET INC,513 BRIGHTON BEACH  AVENUE,BROOKLYN,11235,NEW YORK CITY,GROCERY SUPERMARKET,40.57754779700008,-73.96189698399996
16300,NYC,BURJ KHALEEFA DELI INC,1981 AMSTERDAM AVENUE,NEW YORK,10032,NEW YORK CITY,DELICATESSEN,40.833556603000034,-73.94148933599996
16812,NYC,BORGATA DELI CORP.,1977 86TH STREET,BROOKLYN,11214,BROOKLYN,CONVENIENCE STORE,40.604795644000035,-73.99851572199998
16280,NYC,LILY'S DELI FOOD CORP.,374 WILLIS AVENUE,BRONX,10454,BRONX,DELICATESSEN,40.81217090100006,-73.92063475899994
16536,NYC,250 LIVONIA DELI AND GROCERY INC,250 LIVONIA AVENUE,BROOKLYN,11212,BROOKLYN,GROCERY SUPERMARKET,40.662603786000034,-73.90848640099995
16847,NYC,G DELI GROCERY CORP,676 CASTLE HILL AVENUE,BRONX,10473,BRONX,GROCERY SUPERMARKET,40.82084829900003,-73.84841595799998
16912,NYC,THE CANTEEN ON 13 CORP,3808 13TH  AVENUE,BROOKLYN,11218,BROOKLYN,GROCERY SUPERMARKET,40.641042578000054,-73.98590115099995
16882,NYC,LINCOLN DELI GROCERY EXPRESS CORP,181 LINCOLN AVENUE,BRONX,10454,NEW YORK CITY,GROCERY SUPERMARKET,40.80975941100007,-73.92809650599997
16998,NYC,R & H BROTHERS INC,1702 LINDEN STREET,RIDGEWOOD,11385,QUEENS,DELICATESSEN,40.70263870400004,-73.91020905999994
16874,NYC,MARILYN'S DELI GROCERY CORP,1027 WALTON  AVENUE,BRONX,10452,NEW YORK CITY,GROCERY SUPERMARKET,40.83106653300007,-73.92189936299997
16387,NYC,JD MINIMARKET INC.,7423 18TH  AVENUE,BROOKLYN,11204,NEW YORK CITY,DELICATESSEN,40.613498685000025,-73.99581867699999
16665,NYC,N  AND A FOOD CORP,222 EAST 198TH STREET,BRONX,10458,BRONX,GROCERY SUPERMARKET,40.869646362000026,-73.89018031699999
16256,NYC,FRSH POND EXPRESS DELI INC,6620 FRSH POND  ROAD,RIDGEWOOD,11385,QUEENS,DELICATESSEN,40.70851182800004,-73.89811781299994
16160,NYC,HI LIFE TOBACCO INC.,16808 UNION TURNPIKE,FRESH MEADOWS,11366,QUEENS,CONVENIENCE STORE,40.72293263300003,-73.79999131099999
16224,NYC,WALTON DELI AND GROCERY,975 WALTON AVENUE,BRONX,10452,BRONX,DELICATESSEN,40.82985670900007,-73.92259984899994
16341,NYC,"SHOPWELL, INC",10 EAST UNION SQUARE,NEW YORK,10003,MANHATTAN,GROCERY SUPERMARKET,40.73104979400006,-73.98887060499999
16887,NYC,2013 ABIGAIL DELI GROCERY CORP,787 E 185 STREET,BRONX,10460,BRONX,CONVENIENCE STORE,40.85231771000008,-73.88234231399997
16646,NYC,EMPIRE STATE DELI GROCERY INC,1665 MADISON AVENUE,NEW YORK,10029,NEW YORK CITY,GROCERY SUPERMARKET,40.79669144700006,-73.94722407999996
16291,NYC,TARAN GROCERIES INC,14310 45TH AVENUE,FLUSHING,11355,QUEENS,CONVENIENCE STORE,40.75401659600004,-73.81807478499996
16286,NYC,J&F DELI GROCERY INC,145-89 GUY R BREWER BOULEVARD,JAMAICA,11434,NEW YORK CITY,GROCERY SUPERMARKET,40.66377631300003,-73.76846500699997
16730,NYC,YAHYA N.G. RASHED & HEITHAM H. YEHYA,284 E KINGSBRIDGE  ROAD,BRONX,10458,BRONX,GROCERY SUPERMARKET,40.863527813000076,-73.89430651799995
16573,NYC,DMV DELI EXPRESS INC,1332 COMMERCE  PLACE,BRONX,10461,NEW YORK CITY,GROCERY SUPERMARKET,40.83698254300003,-73.84062385199996
16857,NYC,F & B ORGANIC DELI GROCERY INC,728 DRIGGS AVENUE,BROOKLYN,11211,BROOKLYN,GROCERY SUPERMARKET,40.71291754600003,-73.96045871499996
16647,NYC,GENUINE DELI AND GROCERY CORP,700 FULTON  STREET,BROOKLYN,11217,BROOKLYN,GROCERY SUPERMARKET,40.68601469600003,-73.97386118699995
16078,NYC,PANCHO DELI GROCERY STORE INC,111-04 142ND STREET,JAMAICA,11435,QUEENS,CONVENIENCE STORE,40.68564522200006,-73.80248110899998
16716,NYC,SAIED DELI CORP,105 EAST 125 STREET,NEW YORK,10035,MANHATTAN,GROCERY SUPERMARKET,40.80493359700006,-73.93866437599996
16164,NYC,DAD DELI & CAFE INC,5924 KISSENA BOULEVARD,FLUSHING,11355,NEW YORK CITY,RESTAURANT/ATUPA,40.74014324800004,-73.81515628799997
16721,NYC,BAY STOP DELI 2970 CORP,2970 OCEAN AVENUE,BROOKLYN,11235,BROOKLYN,GROCERY SUPERMARKET,40.58888494300004,-73.94947589099996
16943,NYC,PAPA FIRO GROCERY CORP,109 3RD  AVENUE,BROOKLYN,11217,NEW YORK CITY,GROCERY SUPERMARKET,40.682872417000056,-73.98232412799996
16532,NYC,181 ST CANDY & DELI CORP,110 EAST 181 STREET,BRONX,10453,NEW YORK CITY,GROCERY SUPERMARKET,40.85481311700005,-73.90336504599998
16458,NYC,F & L MINI MARKET CORP,1690 LEXINGTON AVENUE,NEW YORK,10029,NEW YORK CITY,GROCERY SUPERMARKET,40.79239995200004,-73.94620656899997
16476,NYC,LASLAGUNAS DELI CORP,444 MELROSE STREET,BROOKLYN,11237,BROOKLYN,DELICATESSEN,40.705547876000026,-73.92619785099998
16329,NYC,BROADWAY CORNE DELI & GROCERY CORP,251 BROADWAY,STATEN ISLAND,10310,NEW YORK CITY,DELICATESSEN,40.635256868000056,-74.11732556699997
16226,NYC,I LIKE IT LLC,240 PAGE AVENUE,STATEN ISLAND,10307,STATEN ISLAND,STAND,40.518230118000076,-74.23460074799993
16844,NYC,CHAND SERVICE INC,3083 WEBSTER AVENUE,BRONX,10467,BRONX,GROCERY SUPERMARKET,40.870559842000034,-73.87788492599998
16457,NYC,SW JOANN'S DELI INC.,1373 BAY STREET,STATEN ISLAND,10305,STATEN ISLAND,CONVENIENCE STORE,40.61020982500003,-74.06322182399998
16033,NYC,1278 DELI & GROCERY CORP,1278 MORRIS AVENUE,BRONX,10472,NEW YORK CITY,DELICATESSEN,40.835209951000024,-73.91291226399994
16330,NYC,J&J SUTPHIN MARKET INC,111-02 SUTPHIN  BOULEVARD,JAMAICA,11435,QUEENS,CONVENIENCE STORE,40.68850189800003,-73.79552355099997
16219,NYC,313 DISCOUNT CANDY & TOBACCO CORP,313 CENTRAL AVENUE,BROOKLYN,11221,NEW YORK CITY,GROCERY SUPERMARKET,40.69533546900004,-73.92024663599994
16512,NYC,LUNA GOURMENT DELI GROCERY INC,147 SHERMAN AVENUE,NEW YORK,10034,MANHATTAN,GROCERY SUPERMARKET,40.86451309600005,-73.92338742599998
16382,NYC,66 MYRTLE AVE DELI & GROCERY INC,6601 MYRTLE AVENUE,GLENDALE,11385,NEW YORK CITY,GROCERY SUPERMARKET,40.70135778200006,-73.88826205999999
16269,NYC,QUEENS VARIETY INC,3940 QUEENS BOULEVARD,SUNNYSIDE,11104,QUEENS,CONVENIENCE STORE,40.743704716000025,-73.92495408199994
16956,NYC,2741 K AND M DELI GROCERY CORP,2741 WHITE PLAINS ROAD,BRONX,10467,NEW YORK CITY,GROCERY SUPERMARKET,40.86648244100007,-73.86731625299996
16243,NYC,527 CONVENIENT STORE INC,527A MALCOLM X BOULEVARD,NEW YORK,10037,NEW YORK CITY,CONVENIENCE STORE,40.81512712800003,-73.94022859699999
16556,NYC,K GOURMET DELI CORP,1804 WEBSTER AVENUE,BRONX,10457,BRONX,GROCERY SUPERMARKET,40.84553570500003,-73.90212064499997
16833,NYC,BONNIE CHATTERJEE,652 E 233RD STREET,BRONX,10466,BRONX,GROCERY SUPERMARKET,40.89385383500007,-73.85885914099998
16871,NYC,KHALED M N AHMED,11120 101TH  AVENUE,S RICHMOND HILL,11419,NEW YORK CITY,GROCERY SUPERMARKET,40.68823387200007,-73.83197260899993
16666,NYC,S & M GOURMET INC,670 CASTLE HILL AVENUE,BRONX,10473,BRONX,CONVENIENCE STORE,40.82072824900007,-73.84838565399997
16649,NYC,DAY & NIGHT DELI GROCERY CORP,1017 LEGGET  AVENUE,BRONX,10455,BRONX,GROCERY SUPERMARKET,40.81398733300006,-73.89953588799995
16533,NYC,VINAYAK GROCERY INC,2  SECOND  STREET,BROOKLYN,11231,NEW YORK CITY,GROCERY SUPERMARKET,40.67939446500003,-73.99523241399999
16087,NYC,S.A.D. GROCERY STORE CORP,260 MALCOLM X BOULEVARD,NEW YORK,10027,NEW YORK CITY,GROCERY SUPERMARKET,40.80660322500006,-73.94622802399994
16277,NYC,GALAXY WIRELESS & SMOKE SHOP CORP,4104 5TH AVENUE,BROOKLYN,11232,MANHATTAN,TOBACCO RETAIL,40.65004282900003,-74.00521287899994
16642,NYC,D & J  GROCERY AND CONVENIENCE INC,59 NASSUA  STREET,NEW YORK,10038,NEW YORK CITY,GROCERY SUPERMARKET,40.70919720400008,-74.00878982899997
16466,NYC,SANA NEWS INC,381 BROADWAY,NEW YORK,10013,NEW YORK CITY,STAND,40.71812048800007,-74.00297505399999
16202,NYC,MYRTLE MARKET PLACE CORP,1218 MYRTLE  AVENUE,BROOKLYN,11221,NEW YORK CITY,OTHER,40.697593108000035,-73.92952778099993
16181,NYC,NEW DESHI BAZAR INC.,7615 WOODSIDE AVENUE,ELMHURST,11373,QUEENS,GROCERY SUPERMARKET,40.743537282000034,-73.88824574199998
16934,NYC,ALZAMZAMI SUPERMARKET INC,14702A ROCKAWAY  BOULEVARD,JAMAICA,11436,QUEENS,GROCERY SUPERMARKET,40.67338476300006,-73.79065717199995
16077,NYC,LATE NIGHT STOP 1 DELI  INC,9429 5TH  AVENUE,BROOKLYN,11209,NEW YORK CITY,DELICATESSEN,40.61587870400007,-74.03094786299994
16509,NYC,"KING DELI EXPRESS AND GROCERY,INC",920 E TREMONT AVENUE,BRONX,10460,BRONX,GROCERY SUPERMARKET,40.84172533900005,-73.88372347099994
16643,NYC,K&S WEST INDIAN DELI & GROCERY INC,111-41 LEFFERTS BOULEVARD,S OZONE PARK,11420,NEW YORK CITY,GROCERY SUPERMARKET,40.679345512000054,-73.82074968399996
16926,NYC,NEW LUCKY BEST CENTER INC,5822 8TH  AVENUE,BROOKLYN,11220,BROOKLYN,GROCERY SUPERMARKET,40.63622309600004,-74.00882253699996
16208,NYC,PATEL BALDEVBHAI S,420 BROADWAY,NEW YORK,10013,NEW YORK CITY,STAND,40.71949502800004,-74.00171475799993
16909,NYC,COURT JUICE BAR & DELI INC,205 COURT STREET,BROOKLYN,11201,BROOKLYN,GROCERY SUPERMARKET,40.68702521400007,-73.99365078399995
16946,NYC,SHAH'S CORNER DELI GROCERY INC,1714 WEST 6TH  STREET,BROOKLYN,11223,BROOKLYN,GROCERY SUPERMARKET,40.60528283700006,-73.97920515899995
16292,NYC,13TH AVE DELI & GROCERY INC,7024 13TH  AVENUE,BROOKLYN,11218,BROOKLYN,GROCERY SUPERMARKET,40.62298601500004,-74.00468343899996
16668,NYC,ONE AMMEER DELI & GROCERY CORP,466 BAY  STREET,STATEN ISLAND,10304,NEW YORK CITY,GROCERY SUPERMARKET,40.63074159000007,-74.07664377799995
15658,NYC,YOGI KRUPA 594 INC,594-596 COLUMBUS  AVENUE,NEW YORK,10024,NEW YORK CITY,CONVENIENCE STORE,40.78826233400008,-73.97095454699996
16570,NYC,MATTY'S GOURMET DELI PLUS INC.,13207 JAMAICA AVENUE,RICHMOND HILL,11418,QUEENS,GROCERY SUPERMARKET,40.70220116400003,-73.82017935499994
16949,NYC,LALY DELI & GROCERY CORP,147 WEST 168TH STREET,BRONX,10452,BRONX,GROCERY SUPERMARKET,40.83851776300003,-73.92601614399996
16979,NYC,GROCERY TOST CAFE INC.,59 4TH AVENUE,NEW YORK,10003,MANHATTAN,CONVENIENCE STORE,40.73077542400006,-73.99045579999995
15656,NYC,HAGAR DELI DISCOUNT CORP,2614 3RD  AVENUE,BRONX,10454,BRONX,CONVENIENCE STORE,40.81220470100004,-73.92502765499995
16700,NYC,M & B GROCERY CORP,1435 CENTRAL AVENUE,FAR ROCKAWAY,11691,NEW YORK CITY,GROCERY SUPERMARKET,40.60590756300007,-73.75103095399999
16727,NYC,KIKO CAFE CORP.,478 EAST 169TH STREET,BRONX,10456,BRONX,GROCERY SUPERMARKET,40.832980502000055,-73.90582129399996
16964,NYC,"CHUMBER FRIED CHICKEN, INC",12020 MERRICK BOULEVARD,JAMAICA,11434,QUEENS,GROCERY SUPERMARKET,40.68402016300007,-73.77035714499993
17015,NYC,KAI'S DELI INC,1980 3RD AVENUE,NEW YORK,10029,NEW YORK CITY,GROCERY SUPERMARKET,40.79337900000007,-73.94339646699996
16205,NYC,VECINO GROCERY INC,1711 HARMAN  STREET,RIDGEWOOD,11385,NEW YORK CITY,GROCERY SUPERMARKET,40.70494165400004,-73.91388292499994
16480,NYC,BAGHDAD DELI CORP,215-11 JAMAICA AVENUE,QUEENS VILLAGE,11428,QUEENS,DELICATESSEN,40.717227689000026,-73.74034650599998
17012,NYC,BHELA INC,10515 MERRICK BOULEVARD,JAMAICA,11433,QUEENS,CONVENIENCE/GAS,40.70047314200008,-73.78904949799994
15746,NYC,COMMUNITY CANDY CORP,3513 BROADWAY,NEW YORK,10031,NEW YORK CITY,CONVENIENCE STORE,40.825559386000066,-73.95123701199998
16831,NYC,QUICK SHOP CONVENIENCE INC,25 PARK  PLACE,NEW YORK,10007,NEW YORK CITY,GROCERY SUPERMARKET,40.713145990000044,-74.00894841399997
17004,NYC,MIKE DELI AND GROCERY CORP,202 FORDHAM ROAD,BRONX,10468,NEW YORK CITY,GROCERY SUPERMARKET,40.86257134400006,-73.90926004999994
16342,NYC,GOOD DELI & GROCERY CORP,698 BECK STREET,BRONX,10455,BRONX,GROCERY SUPERMARKET,40.814974009000025,-73.90040342399993
16483,NYC,QUICK STOP NEWYOK INC,286 5TH  AVENUE,NEW YORK,10001,NEW YORK CITY,CONVENIENCE STORE,40.74615973300007,-73.98626712799995
16629,NYC,SABROSO DELI MARKET INC,1564 PARK PLACE,BROOKLYN,11213,BROOKLYN,GROCERY SUPERMARKET,40.67205276800007,-73.92540179199995
16908,NYC,ABE'S CONVENIENT DELI CORP.,8 EAST MOUNT EDEN AVENUE,BRONX,10452,BRONX,GROCERY SUPERMARKET,40.84429092600004,-73.91466929899997
16426,NYC,"YOGI 115, INC",115-18 LIBERTY  AVENUE,RICHMOND HILL,11418,QUEENS,CONVENIENCE STORE,40.68572568600007,-73.82749010799995
16155,NYC,SUPER ECONOMIC ONE WAY SUPERMARKET CORP.,104-21 GLENWOOD ROAD,BROOKLYN,11236,BROOKLYN,CONVENIENCE STORE,40.64897520000005,-73.89647674099996
16919,NYC,JLD DELI GROCERY CORP,834  NEW LOTS  AVENUE,BROOKLYN,11208,NEW YORK CITY,GROCERY SUPERMARKET,40.66755497300005,-73.87989003099995
16612,NYC,MAIN STREET AUTO SERVICES INC,6720 MAIN STREET,FLUSHING,11367,NEW YORK CITY,GROCERY SUPERMARKET,40.733964677000074,-73.82538861399996
16640,NYC,KIARA GROCERY STORE,222 PALMETTO STREET,BROOKLYN,11221,BROOKLYN,GROCERY SUPERMARKET,40.695009120000066,-73.91544813399997
16111,NYC,JAI MAA ENERGY & FOOD INC,1255 EAST GUN HILL  ROAD,BRONX,10469,BRONX,GAS STATION,40.87237771100007,-73.85059200999996
16715,NYC,ANGEL MINI MARKET CORP,1236 INTERVALE  AVENUE,BRONX,10459,BRONX,CONVENIENCE STORE,40.82902918000008,-73.89439859499998
16285,NYC,MARCY SUPERMARKET AND DELI CORP,784 MARCY  AVENUE,BROOKLYN,11216,NEW YORK CITY,GROCERY SUPERMARKET,40.68687369500003,-73.94755625699997
16886,NYC,RABEAA FOOD CORP,890 ROCKAWAY  AVENUE,BROOKLYN,11212,BROOKLYN,GROCERY SUPERMARKET,40.65781227700006,-73.90774512099995
16754,NYC,897 PARK AVE DELI INC,897 PARK  AVENUE,BROOKLYN,11206,BROOKLYN,GROCERY SUPERMARKET,40.69882899300006,-73.93890086399995
16706,NYC,LOS VECINO FOOD CENTER CORP,116-19 SUTPHIN BOULEVARD,JAMAICA,11434,QUEENS,CONVENIENCE STORE,40.682028571000046,-73.79246567799999
16152,NYC,SUAD DELI CORP,62 RICHMOND TERRACE,STATEN ISLAND,10301,STATEN ISLAND,CONVENIENCE STORE,40.64423585900005,-74.07671195799998
16674,NYC,2013 RIVERDALE GROCERY CORP.,570 PENNSYLVANIA  AVENUE,BROOKLYN,11207,BROOKLYN,GROCERY SUPERMARKET,40.66336138300005,-73.89371442599997
16161,NYC,111 AUDUBON FOOD CORP,111 AUDUBON AVENUE,NEW YORK,10032,NEW YORK CITY,GROCERY SUPERMARKET,40.84243165300006,-73.93690444399994
16717,NYC,TALHA 99 CENT STORE INC,88-36 SUTPHIN BOULEVARD,JAMAICA,11435,QUEENS,CONVENIENCE STORE,40.70442656200004,-73.80908355499997
16276,NYC,STAR ONE DELI GROCERY CORP 1,740 SUTTER  AVENUE,BROOKLYN,11207,BROOKLYN,DELICATESSEN,40.66994315200003,-73.89119687399995
16416,NYC,1759 DELI GROCERY CORP,1759 MADISON AVENUE,NEW YORK,10029,NEW YORK CITY,DELICATESSEN,40.799581971000066,-73.94510397399995
16516,NYC,MUKTI 49 PETROLEUM INC.,9949 HORACE HARDING EXPY,CORONA,11368,QUEENS,GROCERY SUPERMARKET,40.73671378500006,-73.85637427399996
16453,NYC,PARIS DELI CORP,1602 FULTON  STREET,BROOKLYN,11213,BROOKLYN,CONVENIENCE STORE,40.67964809500006,-73.93651126699996
16336,NYC,DG DELI GROCERY NY CORP,783 HOWARD  AVENUE,BROOKLYN,11212,BROOKLYN,DELICATESSEN,40.66285903800008,-73.91872677999999
16605,NYC,KRISHNA 37 INC.,3759 90TH  STREET,QUEENS,11372,QUEENS,CONVENIENCE/GAS,40.749309537000045,-73.87659867599996
16318,NYC,NEW CORONA KING PRODUCE INC,4008 NATIONAL  STREET,CORONA,11368,NEW YORK CITY,GROCERY SUPERMARKET,40.74927905900006,-73.86295615899996
16260,NYC,U.S. LANKA INC,17516 HILLSIDE AVENUE,JAMAICA,11432,QUEENS,BAR/LOUNGE,40.71175818300003,-73.78751662299999
16071,NYC,COUSIN'S BAGELS I INC,4651 HYLAN BOULEVARD,NEW YORK,10312,NEW YORK CITY,DELICATESSEN,40.529347150000035,-74.16154125499997
16302,NYC,FULTON GOURMET AND COFFEE SHOP CORP,3336 FULTON STREET,BROOKLYN,1120,NEW YORK CITY,GROCERY SUPERMARKET,40.68354303900003,-73.87245497499998
16147,NYC,BROADWAY AUOT CENTER NY INC,3209  21ST  STREET,LONG ISLAND CITY,11106,NEW YORK CITY,GAS STATION,40.76507807000007,-73.93177899499995
16856,NYC,3768 NOSTRAND AVENUE FOODS INC,3768 NOSTRAND  AVENUE,BROOKLYN,11235,BROOKLYN,GROCERY SUPERMARKET,40.591973608000046,-73.94026584299996
16186,NYC,QUICK BUS STOP AND GROCERY CORP,548 NOSTRAND AVENUE,BROOKLYN,11216,BROOKLYN,CONVENIENCE STORE,40.67994226500008,-73.94959710599994
16110,NYC,"MADHU GROCERY,  INC",3404 BROADWAY,ASTORIA,11106,QUEENS,CONVENIENCE STORE,40.76073473200006,-73.92282246599996
15841,NYC,SEND A PACKAGE INC,40 WALL  STREET,NEW YORK,10005,NEW YORK CITY,CONVENIENCE STORE,40.706755369000064,-74.01003469199998
16628,NYC,6418 MINI MART CORP,6418 7TH AVENUE,BROOKLYN,11220,NEW YORK CITY,GROCERY SUPERMARKET,40.63419390100006,-74.01457094899996
16850,NYC,BEST INDUSTRIES INC,75 CLASSON AVENUE,BROOKLYN,11205,BROOKLYN,GROCERY SUPERMARKET,40.69793810600004,-73.96192612199997
16513,NYC,SATSANG 3 INC.,142 DELANCEY  STREET,NEW YORK,10002,MANHATTAN,GROCERY SUPERMARKET,40.718231126000035,-73.98681628199995
16487,NYC,VILLAGE CONVENIENCE,124 2ND AVENUE,NEW YORK,10003,NEW YORK CITY,CONVENIENCE STORE,40.728271121000034,-73.98787439899996
16615,NYC,NASR DELI GROCERY STORE  INC,20513 JAMAICA AVENUE,QUEENS,11423,QUEENS,GROCERY SUPERMARKET,40.71379752300004,-73.75453687899994
16584,NYC,BKINNOVATION LLC,130 INDIA STREET,BROOKLYN,11222,BROOKLYN,GROCERY SUPERMARKET,40.732243260000075,-73.95497837499994
16484,NYC,KILSARIS DELI INCORPORATED,9101 AVENUE L,BROOKLYN,11236,BROOKLYN,GROCERY SUPERMARKET,40.63591539500004,-73.89961552399996
16334,NYC,240 UTICA DELI CORP,240 UTICA AVENUE,BROOKLYN,11213,BROOKLYN,DELICATESSEN,40.67036390900006,-73.93100684299998
16298,NYC,CRATER CANDY STORE CORP.,3023 30TH  AVENUE,ASTORIA,11102,NEW YORK CITY,GROCERY SUPERMARKET,40.76700646900008,-73.92155786199999
16526,NYC,SHIN DELI GROCERY CORP,1979 7TH AVENUE,NEW YORK,10026,MANHATTAN,GROCERY SUPERMARKET,40.80503200700008,-73.95105402299998
16708,NYC,SHAMBHU DELI GROCERY INC.,7902 PARSONS BOULEVARD,FLUSHING,11366,QUEENS,GROCERY SUPERMARKET,40.72058093000004,-73.80926451499994
16541,NYC,MADISON OK MARKET INC,1291 MADISON AVENUE,NERW YORK,10128,NEW YORK CITY,GROCERY SUPERMARKET,40.78453143400003,-73.95609495699995
16726,NYC,SAMMY'S DELI & GRILL CORP,1126 WESTCHESTER  AVENUE,BROOKLYN,10459,NEW YORK CITY,GROCERY SUPERMARKET,40.82566545000003,-73.88991711799997
16743,NYC,M.V. QUICK STOP CORP.,2875 WEST 8TH  STREET,BROOKLYN,11224,BROOKLYN,GROCERY SUPERMARKET,40.57789745700006,-73.97627500799996
16669,NYC,ROCKAWAY BEACH HALAL,9209 ROCKAWAY  BOULEVARD,QUEENS,11693,QUEENS,GROCERY SUPERMARKET,40.58744600800003,-73.81169429199997
16167,NYC,HAROON & RENUKA INC,7068 KISSENA  BOULEVARD,QUEENS,11367,QUEENS,CONVENIENCE/GAS,40.73004622900004,-73.81513647399998
16756,NYC,RAMS DELI PLUS INC,574 EAST FORDHAM  ROAD,BRONX,10458,BRONX,GROCERY SUPERMARKET,40.85873513800004,-73.88577364499997
16399,NYC,ASKHAR 137 INC,13720 CROSSS BAY  BOULEVARD,JAMAICA,11417,QUEENS,GROCERY SUPERMARKET,40.67104404000003,-73.84304459499998
16609,NYC,T & F UNITED INC,13711 NORTHERN BOULEVARD,FLUSHING,11354,QUEENS,GROCERY SUPERMARKET,40.76342975000006,-73.83079194299995
16304,NYC,JACARANDA CLUB LLC,333 EAST 60TH  STREET,NEW YORK,10022,MANHATTAN,BAR/LOUNGE,40.760632256000065,-73.96237141099994
16634,NYC,JAKS CORNER INC,7302 37TH AVENUE,JACKSON HEIGHTS,11372,NEW YORK CITY,GROCERY SUPERMARKET,40.74884279100007,-73.89256754099995
16829,NYC,MM PETROLEUM INC,3904 SKILLMAN  AVENUE,LONG ISLAND CITY,11104,QUEENS,GROCERY SUPERMARKET,40.74738132200008,-73.92524486799994
16770,NYC,NAZMUN NAHAR,3318 31ST AVENUE,ASTORIA,11106,QUEENS,GROCERY SUPERMARKET,40.76326510600006,-73.92128279599996
16406,NYC,CROPSEY DELI FOOD & GRILL INC,2978 CROPSEY AVENUE,BROOKLYN,11214,BROOKLYN,DELICATESSEN,40.582450032000054,-73.98629393499994
16704,NYC,AMIR DELI CORP II,344 AUDUBON AVENUE,NEW YORK,10033,NEW YORK CITY,GROCERY SUPERMARKET,40.84950315400005,-73.93181723899994
16905,NYC,"WALGREEN EASTERN CO., INC",2535 86TH  STREET,BROOKLYN,11214,BROOKLYN,GROCERY SUPERMARKET,40.597387791000074,-73.98625403799997
15814,NYC,FAMOUS COLFAX DELI & GROCERY,114-01 COLFAX  STREET,CAMBRIA HEIGHTS,11411,QUEENS,CONVENIENCE STORE,40.702749004000054,-73.74372658499993
16361,NYC,EL AMARILLO DELI GROCERY CORP,3569 BROADWAY,NEW YORK,10031,NEW YORK CITY,GROCERY SUPERMARKET,40.827365445000055,-73.94992085999996
16672,NYC,7-ELEVEN STORE #36802H,1523 AVENUE J,BROOKLYN,11230,BROOKLYN,GROCERY SUPERMARKET,40.625307872000064,-73.96060440699995
16482,NYC,FLATBUSH DELI & GROCERY INC,1218 FLATBUSH AVENUE,BROOKLYN,11226,BROOKLYN,DELICATESSEN,40.640419017000056,-73.95559261199998
16051,NYC,JAZZ GOURMET AT 106TH ST CORP.,51 WEST 106TH  STREET,NEW YORK,10025,NEW YORK CITY,CONVENIENCE STORE,40.79874959600005,-73.96161054399994
16425,NYC,ST JOHNS GROCERY CORP.,1440 ST JOHNS  PLACE,BROOKLYN,11213,NEW YORK CITY,GROCERY SUPERMARKET,40.67053856900003,-73.93059602699998
16357,NYC,JOSE H SANCHEZ (HILARIO GROCERY),81 WEST 162  STREET,BRONX,10452,NEW YORK CITY,GROCERY SUPERMARKET,40.83122737700006,-73.92876202499997
16514,NYC,"MUKUL DELI & GROCERY, INC",3456 33 STREET,QUEENS,11106,QUEENS,CONVENIENCE STORE,40.75759012200007,-73.92677595599997
16417,NYC,NEEDS VARIETY DISCOUNT INC,1939 WESTCHESTER  AVENUE,BRONX,10462,BRONX,DISCOUNT STORE,40.83338827600005,-73.85951300499994
16557,NYC,NATIONAL DELI & GROCERY INC,4042 NATIONAL STREET,CORONA,11368,QUEENS,GROCERY SUPERMARKET,40.74863299500004,-73.86318327099997
17028,NYC,LA FAMILIA MINI GROCERY INC,4844 BROADWAY,NEW YORK,10034,MANHATTAN,GROCERY SUPERMARKET,40.86641230300006,-73.92470008899994
16123,NYC,SHIVA NEWSTAND INC,7912 13TH AVENUE,BROOKLYN,11228,NEW YORK CITY,STAND,40.61778202100004,-74.01009180299997
16696,NYC,MY DELI GROCERY INC,8449 164TH STREET,JAMAICA,11432,QUEENS,GROCERY SUPERMARKET,40.71263781700003,-73.80128177499995
16611,NYC,LUCKY LOTTO 1 DELI INC.,1450 NOSTRAND  AVENUE,BROOKLYN,11226,MANHATTAN,DELICATESSEN,40.65100672500006,-73.94963673399997
16236,NYC,MOE'S 3 DELI & GROCERY CORP,61  EAST BURNSIDE  AVENUE,BRONX,10453,NEW YORK CITY,GROCERY SUPERMARKET,40.85340730900003,-73.90619342699995
16703,NYC,S&A VILLAGE CORP,136 1ST AVENUE,NEW YORK,10009,NEW YORK CITY,GROCERY SUPERMARKET,40.72773100300003,-73.98517541199993
17022,NYC,EAST N WEST DELI GROCERY CORP,501  WEST 145TH  STREET,NEW YORK,10031,NEW YORK CITY,GROCERY SUPERMARKET,40.825308835000044,-73.94768415299995
16942,NYC,M FAMOUS GOURMET DELI INC,3506 WHITE PLAINS ROAD,BRONX,10467,BRONX,GROCERY SUPERMARKET,40.87763310200006,-73.86598171699995
16606,NYC,WAVERLY CLEANERS CORP.,349B WAVERLY AVENUE,BROOKLYN,11238,BROOKLYN,GROCERY SUPERMARKET,40.687570092000044,-73.96668607499998
16864,NYC,NYC DELI MARKET CORP 1,129 AVENUE D,NEW YORK,10009,MANHATTAN,CONVENIENCE STORE,40.724209236000036,-73.97568641299995
16265,NYC,ASK DELI GROCERY INCORPORATED,1479 BEACH  AVENUE,BRONX,10460,BRONX,DELICATESSEN,40.837344098000074,-73.86726613499997
16543,NYC,EVELYN GROCERY CORP,1020 EAST 92ND  STREET,BROOKLYN,11236,BROOKLYN,GROCERY SUPERMARKET,40.644107931000065,-73.90817986499997
16691,NYC,"85TH STREET DELI, INC",8501 JAMAICA  AVENUE,WOODHAVEN,11421,QUEENS,GROCERY SUPERMARKET,40.692558002000055,-73.85899201099994
16358,NYC,"7 ELEVEN, INC",2192 WHITE PLAINS ROAD,BRONX,10462,BRONX,CONVENIENCE STORE,40.85634929100007,-73.86760413999997
16367,NYC,131 MANHATTAN DELI GROCERY CORP,131 MANHATTAN AVENUE,BROOKLYN,11206,NEW YORK CITY,GROCERY SUPERMARKET,40.707314825000026,-73.94495595099994
17011,NYC,OLD BAYVIEW DELI & GROCERY INC,858 BAY  STREET,STATEN ISLAND,10304,STATEN ISLAND,GROCERY SUPERMARKET,40.62149048500004,-74.07180807299994
16601,NYC,MANHATTAN FRUIT 678 INC,678 MANHATTAN AVENUE,BROOKLYN,11222,BROOKLYN,CONVENIENCE STORE,40.72498664700004,-73.95143165599995
16771,NYC,NOSTRAND GOURMET DELI AND SUPERMARKE,349 NOSTRAND AVENUE,BROOKLYN,11216,BROOKLYN,CONVENIENCE STORE,40.68641680500008,-73.95074515699997
16150,NYC,MONINAS FOOD SERVICES CORP.,535 GRAHAM (GROUND FL) AVENUE,BROOKLYN,11222,BROOKLYN,CONVENIENCE STORE,40.72158404600003,-73.94705716099998
16805,NYC,AMERICA'S FINEST DELI CORP.,46 TRINITY  PLACE,NEW YORK,10006,NEW YORK CITY,GROCERY SUPERMARKET,40.70758872500005,-74.01313734299998
16309,NYC,CITY STAR MINI MARKET INC,1173 BROADWAY,BROOKLYN,11221,NEW YORK CITY,GROCERY SUPERMARKET,40.69272583900005,-73.92770488599996
16654,NYC,THE TOWN GROCERY INC.,791 VANDUZER STREET,STATEN ISLAND,10314,STATEN ISLAND,CONVENIENCE STORE,40.62011735200008,-74.08582191099998
16678,NYC,HONG KAY MARKET INC,7022 18TH  AVENUE,BROOKLYN,11204,BROOKLYN,GROCERY SUPERMARKET,40.61585189700003,-73.99353189999994
16825,NYC,"S N K SONS, INC",2007 WILLIAMSBRIDGE ROAD,BRONX,10461,BRONX,GROCERY SUPERMARKET,40.85438070400005,-73.85459561799996
16686,NYC,YVONNE DELI & GROCERY INC,111-01 ROCKAWAY BOULEVARD,SOUTH OZONE PARK,11420,QUEENS,GROCERY SUPERMARKET,40.67751795500004,-73.82750628299993
16505,NYC,BLEECKER GROCERY & CONVENIENCE INC,177 BLEECKER  STREET,NEW YORK,10012,NEW YORK CITY,CONVENIENCE STORE,40.728986759000065,-74.00077802299995
15782,NYC,ANNIE'S FIRST WORK II,155 YORK  STREET,BROOKLYN,11201,BROOKLYN,OTHER,40.70146850800006,-73.98456894599997
16372,NYC,FEATHERBED LAND GROCERY CORP,117A FEATHERBED  LANE,BRONX,10452,BRONX,CONVENIENCE STORE,40.84615390000005,-73.91899801499994
16712,NYC,SAIT JAGNE,4129 WHITE PLAINS ROAD,BRONX,10466,BRONX,GROCERY SUPERMARKET,40.89153675400007,-73.85845003799994
15921,NYC,MUHARRAM JR. HAITHAM S,201 BEACH 116TH STREET,ROCKAWAY,11694,NEW YORK CITY,GROCERY SUPERMARKET,40.57986342800007,-73.83735716999996
16115,NYC,Z MART INC,860A CONEY ISLAND  AVENUE,BROOKLYN,11218,BROOKLYN,CONVENIENCE STORE,40.636384435000025,-73.96798247999999
16574,NYC,97 ADAMS DELI & GROCERY INC,97-04 ROCKAWAY BOULEVARD,OZONE PARK,11417,QUEENS,CONVENIENCE STORE,40.68023364900006,-73.84160457899998
17009,NYC,BEDFORD GOURMET DELI CORP,1040 CARROLL  STREET,BROOKLYN,11225,BROOKLYN,GROCERY SUPERMARKET,40.66749320000008,-73.95655650799995
16597,NYC,ASHLEY STOP & SHOP INC.,9320 101ST AVENUE,OZONE PARK,11416,QUEENS,GROCERY SUPERMARKET,40.68398433600004,-73.84692290999999
16901,NYC,MONEY MINIMARKET INC,847 KNICKERBOCKER AVENUE,BROOKLYN,11207,NEW YORK CITY,GROCERY SUPERMARKET,40.69178641900004,-73.90596651699997
16445,NYC,"LEE, BYUNG JAE",936 SENECA AVENUE,RIDGEWOOD,11385,NEW YORK CITY,DELICATESSEN,40.70012772900003,-73.90321337899996
16472,NYC,J & J NEWS INC.,85 BROAD STREET,NEW YORK,10004,NEW YORK CITY,CONVENIENCE STORE,40.70393158300004,-74.01153551299996
16433,NYC,SAMMY GOURMET DELI INC I,16903 JAMAICA AVENUE,JAMAICA,11432,NEW YORK CITY,DELICATESSEN,40.70699780000007,-73.79057867899996
16443,NYC,DAYLINE GOURMET DELI INC,62 METROPOLITAN OVAL,BRONX,10462,NEW YORK CITY,DELICATESSEN,40.83745148600008,-73.86034156699998
16434,NYC,AM PM DELI CORP,565 LENOX ROAD,BROOKLYN,11203,BROOKLYN,BAR/LOUNGE,40.654807531000074,-73.93960148899998
16692,NYC,ROYAL PETROLEUM MGMT INC.,1 EAST 233RD STREET,NEW YORK,10470,MANHATTAN,CONVENIENCE STORE,40.895597473000066,-73.87647385199995
16662,NYC,NEW SANTIAGO DELI GROCERY CORP,504 BROOK AVENUE,BRONX,10455,BRONX,GROCERY SUPERMARKET,40.81396349100004,-73.91548193399996
16306,NYC,K&K FOOD DELI CORP,57 MARKET  STREET,NEW YORK,10002,NEW YORK CITY,DELICATESSEN,40.711498393000056,-73.99428181799993
16993,NYC,ANTILLANA BEST GROCERY CORP,11427 135TH  AVENUE,SOUTH OZONE PARK,11420,QUEENS,BAR/LOUNGE,40.67137792400007,-73.82533605999998
16039,NYC,D DELI & SMOKE CORP,6901 NEW UTRECHT  AVENUE,BROOKLYN,11228,NEW YORK CITY,DELICATESSEN,40.620320553000056,-73.99860663399994
16052,NYC,7TH ELEVEN STORE #35642A,239 EAST 14TH  STREET,NEW YORK,10003,NEW YORK CITY,CONVENIENCE STORE,40.73263721100005,-73.98554915899996
16881,NYC,DEEDAN CANDY & GROCERY INC,484 KINGS HIGHWAY,BROOKLYN,11223,NEW YORK CITY,GROCERY SUPERMARKET,40.604183739000064,-73.97182733099999
16564,NYC,DUANE READE,769 BROADWAY,NEW YORK,10003,MANHATTAN,PHARMACY,40.73110437200006,-73.99199460399996
16448,NYC,MH DELI 2 CORP,4502 NEW UTRECHT  AVENUE,BROOKLYN,11219,BROOKLYN,GROCERY SUPERMARKET,40.64000059000006,-73.99437691199995
16711,NYC,NAMU GREEN MART INC,252 3RD  AVENUE,NEW YORK,10010,MANHATTAN,GROCERY SUPERMARKET,40.737309835000076,-73.98429621099996
15543,NYC,RADHA & KISHNA GROCERY CORP,1806 KINGS  HIGHWAY,BROOKLYN,11229,BROOKLYN,GROCERY SUPERMARKET,40.61000441500005,-73.95533153199995
17002,NYC,SHEHAB DELI CORP,4124 BRONXWOOD AVENUE,BRONX,10466,NEW YORK CITY,GROCERY SUPERMARKET,40.88961362300006,-73.85267132199994
16635,NYC,1663 MADISON AVENUE,1663 MADISON AVENUE,NEW YORK,10029,NEW YORK CITY,GROCERY SUPERMARKET,40.79662151500003,-73.94727419799995
16494,NYC,NEIGHBOR HOOD GROCERY COR,1175 VYSE AVENUE,BRONX,10459,BRONX,GROCERY SUPERMARKET,40.82847205500008,-73.88998704999995
16125,NYC,SAN JOSE 63 CORP,63 SUTTER AVENUE,BROOKLYN,11212,NEW YORK CITY,GROCERY SUPERMARKET,40.665707602000055,-73.92012542099997
16084,NYC,WOLCOTT DELI GROCERY INC,51 WOLCOTT STREET,BROOKLYN,11231,NEW YORK CITY,DELICATESSEN,40.67622654400003,-74.01134708299998
16058,NYC,MARCY EXPRESS GROCERY CORP,529 MARCY  AVENUE,BROOKLYN,11206,BROOKLYN,CONVENIENCE STORE,40.69719682700003,-73.94954582299994
17030,NYC,21ST CENTURY PHARMACY INC.,9605 57TH AVENUE,CORONA,11368,QUEENS,PHARMACY,40.73696892500004,-73.86480277599998
16398,NYC,JESSIE GROCERY & DISCOUNT INC,8618 WHITNEY  AVENUE,ELMHURST,11373,QUEENS,CONVENIENCE STORE,40.74193933500004,-73.87861843399997
16328,NYC,KEUR A.A. MATY CORP,2251 7TH AVENUE,NEW YORK,10027,MANHATTAN,CONVENIENCE STORE,40.813661618000026,-73.94477412799995
16630,NYC,E. 183 DELI AND GROCERY,124 EAST 183RD STREET,BRONX,10453,BRONX,GROCERY SUPERMARKET,40.85780387700004,-73.90117966999998
16941,NYC,"LEE, BYUNG JAE",936 SENECA AVENUE,RIDGEWOOD,11385,QUEENS,GROCERY SUPERMARKET,40.70012772900003,-73.90321337899996
16128,NYC,GREEN APPLE DELI AND GROCERY STORE I,3571 EAST TREMONT  AVENUE,BRONX,10465,NEW YORK CITY,GROCERY SUPERMARKET,40.82960262300003,-73.82518920199993
16478,NYC,P & A CANDY & DELI CORP,10-40 41ST  AVENUE,LONG ISLAND CITY,11101,QUEENS,CONVENIENCE STORE,40.75548798600005,-73.94539959799994
16381,NYC,KNICKERBOCKER GOURMET AND DELI GROCERY INC,309 KNICKERBOCKER AVENUE,BROOKLYN,11237,BROOKLYN,CONVENIENCE STORE,40.701615365000066,-73.92325604399997
16687,NYC,ANTHONY KYUWAN LEE,25 W 55TH  STREET,NEW YORK,10019,NEW YORK CITY,GROCERY SUPERMARKET,40.76205291200006,-73.97572682099997
16841,NYC,DEFENDERS GOURMET DELI INC,386 EAST 161ST STREET,BRONX,10451,BRONX,CONVENIENCE STORE,40.82433441100005,-73.91439915299998
16796,NYC,B&W DELI GROCERY CORRP,373 WEST NEW YORK  STREET,NEW YORK,10001,NEW YORK CITY,GROCERY SUPERMARKET,40.749278520000075,-73.99259388499996
16816,NYC,D & G FASHION,1578 WESTCHESTER AVENUE,BRONX,10472,BRONX,GROCERY SUPERMARKET,40.82894409600004,-73.87659273599996
17029,NYC,SAHARA GOURMET DELI INC,2546B WHITE PLAINS ROAD,BRONX,10467,BRONX,GROCERY SUPERMARKET,40.86378374700007,-73.86735813599995
16714,NYC,AZ DELI GROCERY INC 1,649 E 169TH STREET,BRONX,10456,BRONX,CONVENIENCE STORE,40.83135734900003,-73.90086257499996
16991,NYC,ROSEDALE TOBACCO & GROCERY INC.,1747A EAST 172ND  STREET,BRONX,10472,BRONX,GROCERY SUPERMARKET,40.83263518000007,-73.86903516599995
15585,NYC,KAMLESH INC,2 BROADWAY,NEW YORK,10004,NEW YORK CITY,RESTAURANT/ATUPA,40.70456649600004,-74.01323524699995
16713,NYC,HMC TOWER INC,1250 WATERS PLACE,BRONX,10461,NEW YORK CITY,PHARMACY,40.84632555200005,-73.84241928199998
16808,NYC,BARCELONA GROCERY AND DELI INC,1601 WESTCHESTER AVENUE,BRONX,10473,BRONX,GROCERY SUPERMARKET,40.82932141600003,-73.87540149799997
16191,NYC,2520 FOODMART CORP,2520 VICTORY BOULEVARD,STATEN ISLAND,10314,NEW YORK CITY,CONVENIENCE STORE,40.61005705200006,-74.14729241799995
16535,NYC,"MAJESTIC GOURMET DELI, LLC",6119 BROADWAY,BRONX,10471,BRONX,CONVENIENCE STORE,40.89397066400005,-73.89650635199996
16969,NYC,SAM AND SID SERVICES INC,176 ATLANTIC  AVENUE,BROOKLYN,11201,BROOKLYN,CONVENIENCE STORE,40.68999382800007,-73.99360765999995
16566,NYC,J & K FOOD CENTER CORP,460 QUINCY AVENUE,BRONX,10465,BRONX,GROCERY SUPERMARKET,40.82122826300008,-73.82171358099998
16650,NYC,EBC DELI & GROCERY CORP.,1117 BROADWAY,BROOKLYN,11221,BROOKLYN,GROCERY SUPERMARKET,40.69381561300003,-73.92959654799995
16364,NYC,"MARTIN'S NEWS AND SUNDRY SHOPS, INC",30 ROCKEFELLER PLAZA,NEW YORK,10112,MANHATTAN,CONVENIENCE STORE,40.75881043600003,-73.97874593899996
16904,NYC,REMA'S 1 DELI INC,1447 WEBSTER AVENUE,BRONX,10456,BRONX,GROCERY SUPERMARKET,40.837448996000035,-73.90671828599994
16709,NYC,EL PALOMAR DELI GROCERY CORP,79 SARATOGA AVENUE,BROOKLYN,11233,BROOKLYN,CONVENIENCE STORE,40.68423842300007,-73.91741555499993
16891,NYC,MOCHA DELI AND GRILL CORP,119 ST NICHOLAS AVENUE,BROOKLYN,11237,BROOKLYN,GROCERY SUPERMARKET,40.70552573100008,-73.91818597199995
16199,NYC,GREEN GARDEN DELI INC,340 LENOX AVENUE,NEW YORK,10027,NEW YORK CITY,DELICATESSEN,40.80913118900003,-73.94437434999998
15931,NYC,EL PATIO DELI & GROCERY LLC,766 EAST 152ND STREET,BRONX,10455,NEW YORK CITY,GROCERY SUPERMARKET,40.81567332900005,-73.90643622699997
16413,NYC,ANW INC,7705 13TH AVENUE,BROOKLYN,11228,NEW YORK CITY,GROCERY SUPERMARKET,40.61894872000005,-74.00878873599999
16352,NYC,D. GERMAN DELI GROCERY CORP,6042 55TH  STREET,QUEENS,11378,QUEENS,GROCERY SUPERMARKET,40.71510525200006,-73.91096549099996
16101,NYC,RUSHO DELI & CONVENIENCE STORE INC,12613 JAMAICA AVENUE,RICHMOND HILL,11418,QUEENS,DELICATESSEN,40.701337968000075,-73.82418800899995
16392,NYC,PALOMA DELI,1282 ST NICHOLAS  AVENUE,NEW YORK,10033,MANHATTAN,DELICATESSEN,40.84492142100004,-73.93691303099996
16383,NYC,IN GOD WE BELIEVE GROCERY CORP.,1345 AMSTERDAM AVENUE,NEW YORK,10027,MANHATTAN,GROCERY SUPERMARKET,40.81362199000006,-73.95602385899997
16166,NYC,ESSA AGHANI ABDO M.,6420 MYRTLE AVENUE,GLENDALE,11385,NEW YORK CITY,OTHER,40.70100346000004,-73.89166891499997
16758,NYC,AARON INC,6705 18TH  AVENUE,BROOKLYN,11204,NEW YORK CITY,GROCERY SUPERMARKET,40.617723528000056,-73.99157202499998
16632,NYC,B N D DELI & GRILL INC.,22920 MERRICK BOULEVARD,LAURELTON,11413,NEW YORK CITY,GROCERY SUPERMARKET,40.676267120000034,-73.74114699199998
16736,NYC,AYESHA R CORP,4109 BROADWAY,ASTORIA,11103,NEW YORK CITY,GROCERY SUPERMARKET,40.75847592800005,-73.91783864299998
16613,NYC,5219 DELI & GROCERY CORP,5219 BROADWAY,BRONX,10463,BRONX,GROCERY SUPERMARKET,40.87491391200007,-73.90935821999994
16421,NYC,330 CANDY STORE CORP,330 EAST 106TH  STREET,NEW YORK,10029,MANHATTAN,CONVENIENCE STORE,40.79008403700004,-73.94122158099998
16506,NYC,WILTON M. HOLMES VARGAS,1390 BOSTON ROAD,BRONX,10456,NEW YORK CITY,CONVENIENCE/GAS,40.83279502000005,-73.89780778099998
16308,NYC,ADNAN ISMAIL/HEIGHT CONV STORE,4243 BROADWAY WAY,MANHATTAN,10033,MANHATTAN,CONVENIENCE STORE,40.84966959700006,-73.93628048199997
16197,NYC,APANA SOHNA BAZAR INC,11710 ROCKWAY BOULEVARD,SOUTH OZONE PK,11420,NEW YORK CITY,GROCERY SUPERMARKET,40.67636291100007,-73.82056552999995
16849,NYC,K&D MERRICK BLVD INC,10846 MERRICK  BOULEVARD,JAMAICA,11433,QUEENS,GROCERY SUPERMARKET,40.69761408800008,-73.78523120999995
16454,NYC,LA VILLA DELI CORP,18919 JAMAICA AVENUE,HOLLIS,11423,NEW YORK CITY,DELICATESSEN,40.71194315900004,-73.76953147099994
16927,NYC,SAINT MARY CORP,4882 ARTHUR KILL  ROAD,STATEN ISLAND,10309,STATEN ISLAND,CONVENIENCE STORE,40.52312367300004,-74.23918530499998
16180,NYC,BIG APPLE DELI GROCERY CORP,294 EAST 204TH STREET,BRONX,10467,BRONX,CONVENIENCE STORE,40.87321922600006,-73.87883289199993
16474,NYC,NYC SMOKERS & MORE INC,104 MACDOUGAL  STREET,NEW YORK,10012,NEW YORK CITY,CONVENIENCE STORE,40.72942033700008,-74.00093653599998
16216,NYC,BROADWAY EXPRESS MARKET INC.,1164 BROADWAY,BROOKLYN,11221,BROOKLYN,GROCERY SUPERMARKET,40.69291582100004,-73.92810466399999
16490,NYC,MAJESTIC 55 INC,856 7  AVENUE,NEW YORK,10019,NEW YORK CITY,RESTAURANT/ATUPA,40.764149746000044,-73.98107700699995
15651,NYC,WELCOME TO YEMEN DELI INC,363 E 180 STREET,BRONX,10457,BRONX,GROCERY SUPERMARKET,40.852036816000066,-73.89862015799997
16744,NYC,LEX & 103 INC,1629 LEXINGTON AVENUE,NEW YORK,10029,MANHATTAN,GROCERY SUPERMARKET,40.79021860100005,-73.94771241599994
16496,NYC,121 CONVENIENCE DELI CORP,121 WEST 116TH  STREET,NEW YORK,10026,NEW YORK CITY,CONVENIENCE STORE,40.80249697100004,-73.95074981899995
16316,NYC,FIKRI DELI GROCERY CORP,3787A BROADWAY,NEW YORK,10032,MANHATTAN,CONVENIENCE STORE,40.83435926000004,-73.94481626599998
16933,NYC,APON GROCERY INC,415 CHURCH  AVENUE,BROOKLYN,11218,MANHATTAN,GROCERY SUPERMARKET,40.64411953200005,-73.97642391399995
16848,NYC,5TH AVENUE MARKET INC,185  5TH  AVENUE,BROOKLYN,11217,NEW YORK CITY,GROCERY SUPERMARKET,40.67712283900005,-73.97989282399993
16554,NYC,"GOOD FRUIT & GROCERY, INC.",307 CITY ISLAND AVENUE,BRONX,10464,BRONX,GROCERY SUPERMARKET,40.84710777400005,-73.78647250299997
16898,NYC,SHRIJIKRUPA CORP,72 KENMARE STREET,NEW YORK,10012,NEW YORK CITY,GROCERY SUPERMARKET,40.721015642000054,-73.99619521999995
16997,NYC,DEEP & DEV INC,25815 HILLSIDE AVENUE,GLEN OAKS,11004,QUEENS,GROCERY SUPERMARKET,40.73711752200006,-73.70945636599998
16076,NYC,9 NEWPORT CANDY STORE INC,9 NEWPORT STREET,BROOKLYN,11212,BROOKLYN,CONVENIENCE STORE,40.658427679000056,-73.91535489099994
16920,NYC,D&Y GROCERY INC,1996 WEST 6TH  STREET,BROOKLYN,11223,BROOKLYN,GROCERY SUPERMARKET,40.59890387100006,-73.97799533499995
16477,NYC,CENTRAL DELI X PRESS CORP,1268B MYRTLE  AVENUE,BROOKLYN,11221,NEW YORK CITY,DELICATESSEN,40.69795049700008,-73.92630919899995
16122,NYC,FELO DELI GROCERY,23 WEST 100TH  STREET,NEW YORK,10025,NEW YORK CITY,DELICATESSEN,40.79469721900006,-73.96400893099997
16064,NYC,EZ GROCERY INC,4021 7TH  AVENUE,BROOKLYN,11232,BROOKLYN,GROCERY SUPERMARKET,40.64786070400004,-74.00021869399995
16540,NYC,"LA BODEGUITA DELI GROCERY, CORP.",1338 SAINT NICHOLAS  AVENUE,NEW YORK,10033,MANHATTAN,GROCERY SUPERMARKET,40.84670660900008,-73.93559465699997
16986,NYC,"VERMILYEA DELI GROCERY, CORP.",53 VERMILYEA AVENUE,NEW  YORK,10034,MANHATTAN,GROCERY SUPERMARKET,40.86542413600006,-73.92416049799994
16577,NYC,DESI DELI & HALAL MEAT CORP,127-32 101 AVENUE,SOUTH RICHMOND HILL,11419,QUEENS,CONVENIENCE STORE,40.69216944300007,-73.81810542699998
16096,NYC,TOM DELI & GRILL CORP,8955 METROPOLITAN  AVENUE,REGO PARK,11374,NEW YORK CITY,GROCERY SUPERMARKET,40.71198606000007,-73.86050278299996
16172,NYC,AMELIA DELI GROCERY CORP,2280 WEBSTER  AVENUE,BRONX,10457,NEW YORK CITY,CONVENIENCE STORE,40.856162805000054,-73.89561191499996
16621,NYC,BLUE GOURMET DELI CORP,651 E 187TH  STREET,BRONX,10458,BRONX,GROCERY SUPERMARKET,40.854845752000074,-73.88608833899997
17007,NYC,K & K DELI & GROCERY INC,9811 4TH  AVENUE,BROOKLYN,11209,BROOKLYN,GROCERY SUPERMARKET,40.613689832000034,-74.03285700799995
16046,NYC,GOLDEN VEGE & GROCERY AT FLATBUSH,1819 FLATBUSH AVENUE,BROOKLYN,11210,BROOKLYN,CONVENIENCE STORE,40.62533234800003,-73.93969939399994
16572,NYC,ELTINGVILLE BAGEL & DELI INC.,3845 RICHMOND AVENUE,STATEN ISLAND,10312,STATEN ISLAND,DELICATESSEN,40.54409496200003,-74.16501758899994
16395,NYC,1430 FOOF CORP I,1430A ROCKAWAY  PARKWAY,BROOKLYN,11236,BROOKLYN,CONVENIENCE/GAS,40.645203062000064,-73.90241113699994
16633,NYC,"LIZZIE'S SUPERMARKET, INC",3201 LAYTON AVENUE,BRONX,10465,BRONX,GROCERY SUPERMARKET,40.83500720300003,-73.82040701699998
16435,NYC,FREEDOM DELI CORP,3475 BROADWAY,NEW YORK,10031,NEW YORK CITY,DELICATESSEN,40.824373310000055,-73.95209072699998
16684,NYC,PS MART QUEENS INC,7819 37 AVENUE,QUEENS,11372,QUEENS,CONVENIENCE STORE,40.749447703000044,-73.88738324699995
16824,NYC,BIGGIE RULES WIRELESS CORP,5 EAST 171ST  STREET,BRONX,10452,BRONX,DISCOUNT STORE,40.84135538800007,-73.91691875599997
16591,NYC,965 A&A DELI GROCERY CORP,965 MORRIS PARK AVENUE,BRONX,10462,BRONX,GROCERY SUPERMARKET,40.84765674000005,-73.85731247699994
16522,NYC,BOSTON MINIMARKET CORP,9424 KINGS HIGHWAY,BROOKLYN,11212,BROOKLYN,GROCERY SUPERMARKET,40.65846847200004,-73.92044827299998
16362,NYC,JOSEPH M KAAIED,1400 TOWNSEND  AVENUE,BRONX,10452,BRONX,CONVENIENCE STORE,40.840091261000055,-73.91660434299996
16452,NYC,C-MINI MARKET INC.,2321 MERMAID  AVENUE,BROOKLYN,11224,BROOKLYN,GROCERY SUPERMARKET,40.57598831300004,-73.99078357099995
16657,NYC,STATEN DELI GROCERY CORP,488 JERSEY STREET,STATEN ISLAND,1030,NEW YORK CITY,GROCERY SUPERMARKET,40.63672964800003,-74.08597521599995
16676,NYC,WELCOME TO YEMEN DELI INC,363 EAST 180 STREET,BRONX,10025,BRONX,CONVENIENCE STORE,40.85217091900006,-73.89896961699998
16888,NYC,GOOD NATURE 1045 INC,1045  2ND AVENUE,NEW YORK,10022,NEW YORK CITY,GROCERY SUPERMARKET,40.758129764000046,-73.96620712699996
16694,NYC,EDWIN FOOD CORP,2  WEST WEST 111TH  STREET,NEW YORK,10026,NEW YORK CITY,GROCERY SUPERMARKET,40.80339483700004,-73.95280904299995
16569,NYC,AL DELI AND GROCERY CANDY INC.,2552 PITKIN AVENUE,BROOKLYN,11208,BROOKLYN,GROCERY SUPERMARKET,40.674453767000045,-73.87820699999997
16095,NYC,MEHR & SONS CORP,102 CORTELYOU  ROAD,BROOKLYN,11218,BROOKLYN,CONVENIENCE STORE,40.63792360900004,-73.97829720899995
16273,NYC,FAHD 1 EXPRESS DELI CORP,461 WILLIS  AVENUE,BRONX,104,BRONX,DELICATESSEN,40.814052426000046,-73.91930013299998
16913,NYC,H & M DELI CORP,2258 THIRD AVENUE,NEW YORK,10035,NEW YORK CITY,DELICATESSEN,40.80228950600008,-73.93688696099997
16679,NYC,IDI DELI AND GROCERY INC.,7408 JAMAICA AVENUE,WOODHAVEN,11421,QUEENS,GROCERY SUPERMARKET,40.69120365200007,-73.86778596299996
16467,NYC,A&A GROCERY STORE INC,198 WYCKOFF AVENUE,BROOKLYN,11237,BROOKLYN,GROCERY SUPERMARKET,40.70169578700006,-73.91505534899994
16062,NYC,RIMPLE INC,1940 FLATBUSH  AVENUE,BROOKLYN,11234,NEW YORK CITY,BAR/LOUNGE,40.62253547000006,-73.93680581499996
16347,NYC,ZIDA'S VARIETY STORE LLC,2148 2ND  AVENUE,NEW YORK,10029,NEW YORK CITY,GROCERY SUPERMARKET,40.79334170300007,-73.94041386599997
16149,NYC,EL MERCADITO MEAT MARKET INC.,1321 ST. NICHOLAS  AVENUE,NY,10033,MANHATTAN,GROCERY SUPERMARKET,40.84615598200003,-73.93608436799997
16760,NYC,BSB SERVICES INC,1884 FLUSHING AVENUE,RIDGEWOOD,11385,QUEENS,CONVENIENCE/GAS,40.712335944000074,-73.91869531099996
16589,NYC,AHMED KHALED K.,167 RALPH AVENUE,BROOKLYN,11233,NEW YORK CITY,GROCERY SUPERMARKET,40.68425416500003,-73.92294970399996
16960,NYC,"MIDLAND GROCERY, INC.",508 MIDLAND AVENUE,STATEN ISLAND,10306,NEW YORK CITY,GROCERY SUPERMARKET,40.57369570800006,-74.09570491699998
16195,NYC,NEW SABA DELI & GROCERY INC,382 MYRTLE  AVENUE,BROOKLYN,11205,BROOKLYN,CONVENIENCE STORE,40.69312328600006,-73.97066179699993
16206,NYC,NOOR MATS INC,70 EAST 184TH  STREET,BRONX,10468,NEW YORK CITY,CONVENIENCE STORE,40.86007761500008,-73.90116682699994
16389,NYC,FLAT GAS INC,1130 PENNSYLVANIA AVENUE,BROOKLYN,11207,BROOKLYN,CONVENIENCE STORE,40.65300774900004,-73.88658718899995
16112,NYC,MANHATTAN GOURMET GOOD CORP,57 AUDUBON AVENUE,NEW YORK,10032,NEW YORK CITY,GROCERY SUPERMARKET,40.84060176500003,-73.93824480799998
16266,NYC,YOGI KRUPA 1061 INC,1061 2ND AVENUE,NEW YORK,10022,NEW YORK CITY,CONVENIENCE STORE,40.758559846000026,-73.96589709499995
16741,NYC,EXPRESS STOP 72 STORE INC,1391 2ND AVENUE,NEW YORK,10021,MANHATTAN,GROCERY SUPERMARKET,40.76916970000008,-73.95814746199994
16475,NYC,SIDE LINE GOURMET DELI INC,255 EAST TREMONT  AVENUE,BRONX,10457,BRONX,DELICATESSEN,40.84877773900007,-73.90359245899998
16683,NYC,LUCKY LOTTO DELI CORP,694 ROCKAWAY AVENUE,BROOKLYN,11212,BROOKLYN,GROCERY SUPERMARKET,40.66298141900006,-73.90906450599994
16777,NYC,1133 SEABREEZE DELI & GROCERY CORP,1133 BRIGHTON BEACH AVENUE,BROOKLYN,11235,BROOKLYN,CONVENIENCE STORE,40.57771679900003,-73.95583154599996
16456,NYC,GRACE NY INC,466 WOODWARD AVENUE,RIDGEWOOD,11385,QUEENS,GROCERY SUPERMARKET,40.70806561200004,-73.91111680499995
15846,NYC,507 NEW WAY SUPERMARKET INC,507 CORTELYOU ROAD,BROOKLYN,11218,NEW YORK CITY,GROCERY SUPERMARKET,40.638417796000056,-73.97427378599997
16728,NYC,"TROPICAL MINI MARKET, CORP",6906 WOODSIDE AVENUE,WOODSIDE,11377,QUEENS,GROCERY SUPERMARKET,40.74262350300006,-73.89530304899995
16518,NYC,KING FAHD DELI AND GROCERY INC,13202 LIBERTY  AVENUE,S RICHMOND HILL,11419,NEW YORK CITY,GROCERY SUPERMARKET,40.69059640900008,-73.81400357499996
16865,NYC,HNR DELI & GROCERY CORP,1223 CHURCH AVENUE,BROOKLYN,11218,NEW YORK CITY,GROCERY SUPERMARKET,40.647667471000034,-73.96764073399999
16485,NYC,BROTHERS DELI LLC,1950 CROSSBRONX EXPRESSWAY,BRONX,10472,BRONX,CONVENIENCE STORE,40.83238358600005,-73.85847917699994
16282,NYC,C & L SUNRISE INC,149 HESTER  STREET,NEW YORK,10002,MANHATTAN,CONVENIENCE STORE,40.717272036000054,-73.99530548099995
16652,NYC,"CHAUDHRY, MANAWAR A",5901 18 AVENUE,BROOKLYN,11204,BROOKLYN,CONVENIENCE STORE,40.622488446000034,-73.98675898299996
16369,NYC,"DASS, SURENDRA",3418A BOSTON ROAD,BRONX,10469,NEW YORK CITY,GROCERY SUPERMARKET,40.87493989600006,-73.85148036599998
17019,NYC,MUKTIE E 163RD PETROLEUM INC,481 E 163RD  STREET,BRONX,10451,BRONX,GROCERY SUPERMARKET,40.824597821000054,-73.91030346799994
16800,NYC,KJY FRUIT MARKET INC,137 DREISER LOOP ALLEY,BRONX,10475,BRONX,GROCERY SUPERMARKET,40.87586238400007,-73.82898313299995
16246,NYC,"FREESIA FARM, INC",802 LEXINGTON AVENUE,NEW YORK,10065,NEW YORK CITY,GROCERY SUPERMARKET,40.76404951000006,-73.96689712299997
16681,NYC,13TH AV MINIMART INC,7912 13 AVENUE,BROOKLYN,11228,BROOKLYN,CONVENIENCE STORE,40.61778202100004,-74.01009180299997
16438,NYC,HABIBI GROCERY CANDY AND DISCOUNT,163 ROCKAWAY PARKWAY,BROOKLYN,11212,BROOKLYN,CONVENIENCE STORE,40.66287302400008,-73.92202057799994
16066,NYC,2001 GOURMET DELI INC,2001 CLINTON AVENUE,BRONX,10457,BRONX,CONVENIENCE STORE,40.846410785000046,-73.88884599199997
16418,NYC,"ALKHADASHY, SHAMSAN A",804 BURKE  AVENUE,BRONX,10467,NEW YORK CITY,GROCERY SUPERMARKET,40.87135012600004,-73.86310455299997
16902,NYC,FAMOUS DELI & GRILL INC.,116 GRAHAM AVENUE,BROOKLYN,11206,BROOKLYN,CONVENIENCE STORE,40.70530777600004,-73.94282535499997
16104,NYC,1539 BOYNTON GOURMET & GRILL INC,1539 WESTCHESTER  AVENUE,BRONX,10472,BRONX,CONVENIENCE STORE,40.82868767900004,-73.87841329999998
16734,NYC,MANHATTAN AVE FINEST DELI CORP,699 MANHATTAN AVENUE,BROOKLYN,11222,NEW YORK CITY,DELICATESSEN,40.72554377200004,-73.95182910299997
16789,NYC,ENRIQUE FOOD CORP.,7614 21ST AVENUE,EAST ELMHURST,11370,QUEENS,GROCERY SUPERMARKET,40.77047320200006,-73.89300137999999
16459,NYC,MUNOZ FOOD MARKET CORP,31-33 E VAN CORTLANDT  AVENUE,BRONX,10468,NEW YORK CITY,GROCERY SUPERMARKET,40.87712413600008,-73.88735316299994
16353,NYC,ALL IN ONE DELI MART INC,79 HENRY  STREET,BROOKLYN,11201,BROOKLYN,DELICATESSEN,40.69851162000003,-73.99246118899998
16752,NYC,KAMAR INC,38-12 ASTORIA BLVD BOULEVARD,ASTORIA,11103,QUEENS,CONVENIENCE STORE,40.76305931100006,-73.91335159699997
17000,NYC,FAMILY DOLLAR STORES OF NEW YORK,18833 LINDEN  BOULEVARD,SAINT ALBANS,11412,QUEENS,GROCERY SUPERMARKET,40.69173746700005,-73.76285645899998
16583,NYC,300 8TH AVENUE FOOD CORP.,300 8TH  AVENUE,NEW YORK,10001,NEW YORK CITY,RESTAURANT/ATUPA,40.74666207800004,-73.99743410699995
16063,NYC,THE MAGAZINE BAZAR INC,80 VARICK STREET,NEW YORK,10013,MANHATTAN,CONVENIENCE STORE,40.72344348100006,-74.00611616699996
16772,NYC,AFIA INC,115 WILLOUGHBY STREET,BROOKLYN,11201,NEW YORK CITY,GROCERY SUPERMARKET,40.692178038000065,-73.98447919899996
16193,NYC,MR ALEX & SAM EXPRESS CORP,375A 6TH AVENUE,NEW YORK,10014,NEW YORK CITY,CONVENIENCE STORE,40.732749342000034,-74.00023569699994
16035,NYC,HOWARD DELI MART INC.,199 HOWARD AVENUE,BROOKLYN,11233,BROOKLYN,DELICATESSEN,40.68166842100004,-73.91970582799996
16444,NYC,BLVD FOOD CORP,1917 SOUTHERN  BOULEVARD,BRONX,10460,BRONX,GROCERY SUPERMARKET,40.841858210000055,-73.88586572199995
16130,NYC,CENTRAL DELI,515 2ND AVENUE,NEW YORK,10016,MANHATTAN,CONVENIENCE STORE,40.74144981100005,-73.97836714099998
16073,NYC,RICHMOND ROAD CONVENIENCE INC,3014 RICHMOND  ROAD,STATEN ISLAND,10306,NEW YORK CITY,CONVENIENCE STORE,40.57525519200004,-74.12232570699996
16225,NYC,B & J GROCERY MARKET CORP,2610 HOYT SOUTH AVENUE,QUEENS,11102,QUEENS,GROCERY SUPERMARKET,40.772306151000066,-73.92048790199993
16950,NYC,539 DELI INC,539 PORT RICHMOND AVENUE,STATEN ISLAND,10302,NEW YORK CITY,GROCERY SUPERMARKET,40.62972757600005,-74.14047073599994
16321,NYC,350 NEW LOTS GOURMET DELI INC,350 NEW LOTS  AVENUE,BROOKLYN,11207,NEW YORK CITY,GROCERY SUPERMARKET,40.66141494100003,-73.89399881699995
16489,NYC,STOP & GO CONVENIENCE INC,1739 AMSTERDAM AVENUE,NEW YORK,10031,NEW YORK CITY,CONVENIENCE STORE,40.82600112400007,-73.94701544899993
16911,NYC,FLOWER POWER DELI & GROCERY INC,799 GRAND STREET,BROOKLYN,11211,BROOKLYN,GROCERY SUPERMARKET,40.71189770400008,-73.94126353999997
16177,NYC,1624 FRUIT GARDEN DELI CORP,1624 SHEEPSHEAD BAY  ROAD,BROOKLYN,11235,BROOKLYN,DELICATESSEN,40.586957193000046,-73.95262947399993
16724,NYC,B&W DELI GROCERY CORP.,373 WEST 34TH STREET,NEW YORK,10001,MANHATTAN,GROCERY SUPERMARKET,40.75317471500006,-73.99570740899998
16212,NYC,SANA CONVENIENCE STORE,1769 UNIVERSITY AVENUE,BRONX,10453,BRONX,CONVENIENCE STORE,40.85026360200004,-73.91596211199999
16539,NYC,DUKE ELLINGTON GOURMET CORP,934 COLUMBUS AVENUE,NEW YORK,10025,NEW YORK CITY,GROCERY SUPERMARKET,40.79911925400006,-73.96301706199995
16999,NYC,JORDAN GOURMET DELI & GROCERY CORP,1129 MYRTLE  AVENUE,BROOKLYN,11206,BROOKLYN,GROCERY SUPERMARKET,40.696887960000026,-73.93636363599995
16339,NYC,ALAIDI HAYETEM A.,716 ROCKAWAY AVENUE,BROOKLYN,11212,NEW YORK CITY,DISCOUNT STORE,40.66230191300008,-73.90888501299997
16000,NYC,DANIA DELI GROCERY CORP,145-18 111TH  AVENUE,JAMAICA,11435,QUEENS,DELICATESSEN,40.68709398000004,-73.79921994599994
15805,NYC,SANCHEZ FAMILY DELI GROCERY CORP,703 PROSPECT AVENUE,BRONX,10455,BRONX,DELICATESSEN,40.816229289000034,-73.90307482799994
16085,NYC,8903 DELI GROCERY INCORPORATED,8902 NORTHERN  BOULEVARD,JACKSON HEIGHTS,11372,QUEENS,GROCERY SUPERMARKET,40.75623344100006,-73.87867787599998
16145,NYC,BROADWAY AROME CAFE LLC,325 BROADWAY,NEW YORK,16007,MANHATTAN,OTHER,40.633455439000045,-74.11693802599996
16972,NYC,LUCKY HESTER CORNER GROCERY STORE IN,119 HESTER  STREET,NEW YORK,10002,MANHATTAN,CONVENIENCE STORE,40.71665774300004,-73.99333259399998
16670,NYC,NY NEW DELI INC,469 EAST 98TH  STREET,BROOKLYN,11212,BROOKLYN,GROCERY SUPERMARKET,40.65717356400006,-73.91416021899994
16338,NYC,180 EAST CORP.,32-19 GREENPOINT AVENUE,LONG ISLAND CITY,11101,QUEENS,RESTAURANT/ATUPA,40.735277144000065,-73.93562002599998
16040,NYC,W & W FOOD CENTER CORP,1086 BOSTON ROAD,BRONX,10456,BRONX,CONVENIENCE STORE,40.827046608000046,-73.90512267099996
16820,NYC,BROADWAY DELI GROCERY,905 BROADWAY ALLEY,BROOKLYN,11206,BROOKLYN,GROCERY SUPERMARKET,40.69780937500008,-73.93664600499994
16836,NYC,"MUTHANA, AHMED N.",5124 FORT HAMILTON  PARKWAY,BROOKLYN,11219,BROOKLYN,GROCERY SUPERMARKET,40.637005169000076,-73.99972671199998
16086,NYC,QUINCY MARKET INC,331 NOSTRAND AVENUE,BROOKLYN,11216,NEW YORK CITY,OTHER,40.687077663000025,-73.95086520699994
16332,NYC,NEPTUNE DELI CORP,373 NEPTUNE  AVENUE,BROOKLYN,11235,BROOKLYN,DELICATESSEN,40.58056769500007,-73.96666634799993
16060,NYC,GOOD FORTINE SUPERMARKET OF FLUSHING,2503 PARSONS BOULEVARD,FLUSHING,11354,NEW YORK CITY,GROCERY SUPERMARKET,40.77603585900005,-73.82438498399995
16826,NYC,LOS LATINOS MINI MARKET CORP,1301 REDFERN AVENUE,FAR ROCKAWAY,11691,QUEENS,GROCERY SUPERMARKET,40.61062604500006,-73.74941768999997
15765,NYC,SIENNA PLACE INC,1859 MOTT AVENUE,QUEENS,11691,QUEENS,CONVENIENCE STORE,40.60336993900006,-73.75132056899997
16142,NYC,JUNCTION MART INC,4022 JUCTION BOULEVARD,CORONA,11368,NEW YORK CITY,GROCERY SUPERMARKET,40.74861128600003,-73.86908809599998
16345,NYC,NEVINS GOURMET DELI INC,75 NEVINS STREET,BROOKLYN,11217,BROOKLYN,CONVENIENCE STORE,40.68643740500005,-73.98237856799994
16210,NYC,NIETOS MINIMARKET CORP,282 RIDGEWOOD AVENUE,BROOKLYN,11208,BROOKLYN,CONVENIENCE STORE,40.684018571000024,-73.87817381599996
16517,NYC,6TH AVE NEWSSTAND INC,405 6TH  AVENUE,NEW YORK,10014,NEW YORK CITY,GROCERY SUPERMARKET,40.73343973800007,-73.99972334999995
16560,NYC,FOREST CONVENIENCE AND GIFTS LLC,748 FOREST  AVENUE,STATEN ISLAND,10310,STATEN ISLAND,CONVENIENCE STORE,40.629162853000025,-74.11411083099995
16693,NYC,"GENOVESE DRUG STORE,INC",4368 AMBOY ROAD,STATEN ISLAND,10312,NEW YORK CITY,GROCERY SUPERMARKET,40.54536471800003,-74.16045488399999
16747,NYC,LA GRAN FAMOSA FOOD MARKET CORP,1704 GRAND  AVENUE,BRONX,10453,BRONX,GROCERY SUPERMARKET,40.84851841300008,-73.91398361099994
16567,NYC,"OLIVE LEAF GOURMET, INC",301 HALSEY STREET,BROOKLYN,11216,BROOKLYN,GROCERY SUPERMARKET,40.682867755000075,-73.94075420199994
16462,NYC,GREEN & ORGANICS DELI  INC,446 FRANKLIN AVENUE,BROOKLYN,11238,NEW YORK CITY,DELICATESSEN,40.68345285300006,-73.95616605399994
16171,NYC,121 DELI INC,12022 101ST  AVENUE,S. RICHMOND HILL,11419,NEW YORK CITY,DELICATESSEN,40.69047402800004,-73.82403299299995
16627,NYC,AVE Z FOOD MART CORP,2835 CONEY ISLAND AVENUE,BROOKLYN,11235,NEW YORK CITY,DELICATESSEN,40.58748397200003,-73.96032467899994
16038,NYC,EXPRESS TOBACCO (2) CORP,102 MOORE STREET,BROOKLYN,11206,NEW YORK CITY,TOBACCO RETAIL,40.70384270000005,-73.94141855599997
16194,NYC,XIN GROCERY INC,3443 JUCTION  BOULEVARD,JACKSON HEIGHTS,11374,QUEENS,GROCERY SUPERMARKET,40.72832651300007,-73.86002294999997
16745,NYC,INDORE INC,1404 FOREST  AVENUE,STATEN ISLANS,10302,NEW YORK CITY,GROCERY SUPERMARKET,40.62509574500007,-74.13569437899997
17016,NYC,"YAHYA, ABDO, MOHAMED",182 RALPH AVENUE,BROOKLYN,11233,BROOKLYN,GROCERY SUPERMARKET,40.68362302100007,-73.92289589399996
16221,NYC,ESSA DELI AND GRILL CORP,13640 FARMERS BOULEVARD,JAMAICA,11434,NEW YORK CITY,DELICATESSEN,40.67415926900003,-73.76377510799995
16899,NYC,REB DELI GROCERY CORP,1305A SHERIDAN  AVENUE,BRONX,10456,NEW YORK CITY,GROCERY SUPERMARKET,40.836375185000065,-73.91448314699994
16982,NYC,BAITOA MEAT & PRODUCE INC.,11101 43RD AVENUE,CORONA,11368,QUEENS,GROCERY SUPERMARKET,40.74963768500004,-73.85466788099995
16415,NYC,LESLYANN DELI GOURMET CORP,1229 FRANKLIN AVENUE,BRONX,10456,BRONX,CONVENIENCE STORE,40.830603816000064,-73.90319021599998
16819,NYC,BEST BUY DELI CORP,2809 CROPSEY  AVENUE,BROOKLYN,11214,BROOKLYN,GROCERY SUPERMARKET,40.58623102300004,-73.98806554699996
16550,NYC,PARKSIDE SMK & DELI CORP,184 PARKSIDE  AVENUE,BROOKLYN,11226,BROOKLYN,GROCERY SUPERMARKET,40.655018666000046,-73.96144777399996
16284,NYC,B D PHARMACY INC.,373 BROADWAY,NEW YORK,10013,MANHATTAN,GROCERY SUPERMARKET,40.71781045600005,-74.00323496799996
16970,NYC,"SAM'S NEWS AND CANDY, INC",9851 63RD ROAD,REGO PARK,11374,QUEENS,GROCERY SUPERMARKET,40.73244722900006,-73.85754558399998
16786,NYC,MUNAWAR CHAUDHRY,5901 18TH  AVENUE,BROOKLYN,11201,BROOKLYN,GROCERY SUPERMARKET,40.622535551000055,-73.98671142299997
16504,NYC,VILLAGE KING DISCOUNT INC,10302 SPRINGFIELD BOULEVARD,QUEENS VILLAGE,11429,QUEENS,CONVENIENCE STORE,40.71313775800007,-73.73590257099994
16401,NYC,CLAREMONT PARK DELI GROCERY CORP,1570 WEBSTER AVENUE,BRONX,10457,NEW YORK CITY,GROCERY SUPERMARKET,40.840043474000026,-73.90520192699995
16297,NYC,MOE'S SUPER MARKET AND DELI INC,960 MYRTLE AVENUE,BROOKLYN,11206,BROOKLYN,DELICATESSEN,40.69604294800007,-73.94309808999998
16289,NYC,ANWARZAI INC,5820 FRANCUS LEWIS  BOULEVARD,BAYSIDE,11364,NEW YORK CITY,CONVENIENCE STORE,40.74483685200005,-73.77657245999995
16798,NYC,JA TOMPKINS FOOD CORP,920 MYRTLE AVENUE,BROOKLYN,11209,BROOKLYN,GROCERY SUPERMARKET,40.695819250000056,-73.94512250899999
16663,NYC,G.S DELI & GROCERY INC,4136 JUNCTION BOULEVARD,CORONA,11368,QUEENS,GROCERY SUPERMARKET,40.74656184200006,-73.86834541899998
16695,NYC,DON LUIS VIP CIGARS CORP,1851 WESTCHESTER AVENUE,BRONX,10472,BRONX,TOBACCO RETAIL,40.83261785900004,-73.86399797899998
16858,NYC,FU XING MARKET CORPORATION,5822 8TH AVENUE,BROOKLYN,11220,BROOKLYN,GROCERY SUPERMARKET,40.63622309600004,-74.00882253699996
16242,NYC,SYED A AHMAD & ALMA AHAMD  7 ELEVEN,555 WEST 42ND  STREET,NEW YORK,10036,MANHATTAN,CONVENIENCE STORE,40.76049696300004,-73.99745974899997
16042,NYC,565 SOTO GROCERY INC,565 PROSPECT  AVENUE,BRONX,10455,NEW YORK CITY,BAR/LOUNGE,40.81263245200006,-73.90438372199998
16493,NYC,A & H MINI MARKET CORP,323  RALPH  AVENUE,BROOKLYN,11233,NEW YORK CITY,GROCERY SUPERMARKET,40.67798650000003,-73.92169422899997
16525,NYC,PARK PEACE ORGANIC GOURMET DELI INC,637 PARK  PLACE,BROOKLYN,11238,NEW YORK CITY,GROCERY SUPERMARKET,40.674238143000025,-73.95687469899997
16337,NYC,IVANNY GROCERY STORE INC,601 EAST 180 TH STREET,BRONX,10457,NEW YORK CITY,GROCERY SUPERMARKET,40.84936657800006,-73.89126797099993
16270,NYC,149TH FINEST DELI INC,3620 BROADWAY,NEW YORK,10031,NEW YORK CITY,CONVENIENCE STORE,40.82899808800005,-73.94841014799994
17013,NYC,"7 ELEVEN, INC",10504 FLATLANDS  AVENUE,BROOKLYN,11236,BROOKLYN,GROCERY SUPERMARKET,40.64758588400008,-73.89443472599999
16461,NYC,WANDY R. MARTINEZ,417 SARATOGA AVENUE,BROOKLYN,11233,BROOKLYN,GROCERY SUPERMARKET,40.67148748400007,-73.91691437499998
16442,NYC,ADEN CITY CORP,926 NOSTRAND AVENUE,BROOKLYN,11225,NEW YORK CITY,GROCERY SUPERMARKET,40.66618430500006,-73.95085704799999
16296,NYC,7 ELEVEN INC,300 EAST 96TH  STREET,NEW YORK,10128,NEW YORK CITY,CONVENIENCE STORE,40.78418474400007,-73.94700196699995
16673,NYC,DVD  PLACE INC,412 8 AVENUE,MANHATTAN,10001,MANHATTAN,OTHER,40.75006194000008,-73.99498415499994
16411,NYC,ASTORIA FINE GOURMET DELI  INC,2217 ASTOIRA  BOULEVARD,ASTORIA,11102,NEW YORK CITY,DELICATESSEN,40.771817792000036,-73.92452297899996
16422,NYC,LUCKY DELI STORE INC,7509 164TH  STREET,FRESH MEADOWS,11366,NEW YORK CITY,DELICATESSEN,40.72685210900005,-73.80494822499998
16127,NYC,VALERY GROCERY CORP,191-02 JAMAICA AVENUE,HOLLIS,11423,QUEENS,CONVENIENCE STORE,40.71259585800004,-73.76845684799997
16295,NYC,G&G DELI GROCERY CORP,3429 3RD  AVENUE,BRONX,10456,BRONX,CONVENIENCE STORE,40.82918303100007,-73.90671245799996
16234,NYC,CHRISTOPHER DELI GROCERY CORP,2480 BELMONT  AVENUE,BRONX,10458,NEW YORK CITY,GROCERY SUPERMARKET,40.856839980000075,-73.88448572999994
16278,NYC,BAHAMAS DELI CORP,3137 BROADWAY,NEW YORK,10027,NEW YORK CITY,DELICATESSEN,40.81371989500008,-73.95992723199998
16240,NYC,LLITTLE PAPA & SON FOOD CORP,853-5-7 CLARKSON  AVENUE,BROOKLYN,11203,NEW YORK CITY,DELICATESSEN,40.65507325300007,-73.93412141399995
16973,NYC,J D & R CORP,4601 SKILLMAN  AVENUE,QUEENS,11104,QUEENS,GROCERY SUPERMARKET,40.74658353900003,-73.91788392299998
16365,NYC,AMIR CANDY & GROCERY CORP,705 SENECA AVENUE,RIDGEWOOD,11385,QUEENS,CONVENIENCE STORE,40.70273836500007,-73.90749111799994
16921,NYC,AMIR FOOD & DELI CORP,1172 E GUN HILL  ROAD,BRONX,10469,BRONX,GROCERY SUPERMARKET,40.87307353400007,-73.85296853299997
16923,NYC,"A & E DIRECT LLC,",40 LEWIS  AVENUE,BROOKLYN,11206,BROOKLYN,GROCERY SUPERMARKET,40.69656161100005,-73.93782521599996
16705,NYC,EREM CORP,49 PENNSYLVANIA AVENUE,BROOKLYN,11207,NEW YORK CITY,GROCERY SUPERMARKET,40.67700861700007,-73.89714575799997
16088,NYC,A PLUS GROCERY STORE CORP.,455 KINGS  HIGHWAY,BROOKLYN,11223,BROOKLYN,CONVENIENCE STORE,40.60429796100004,-73.97291710499996
16072,NYC,"PATEL, SURENDRA R",204 WEST 35TH  STREET,NEW YORK,10123,NEW YORK CITY,GROCERY SUPERMARKET,40.751715467000054,-73.99033577899996
16105,NYC,258 TWINS DELI GROCERY INC,258 MARCUS GARVEY BOULEVARD,BROOKLYN,11221,BROOKLYN,GROCERY SUPERMARKET,40.68879332900008,-73.93924600099996
16835,NYC,LUCKY ONE SNAK CORP,1011 EAST 163RD STREET,BRONX,10459,NEW YORK CITY,GROCERY SUPERMARKET,40.82100280800006,-73.89263049599998
16992,NYC,789 EAST 163 RD STREET INC,789 E 163 ROAD,NEW YORK,10456,BRONX,GROCERY SUPERMARKET,40.822660374000066,-73.90276652399996
16114,NYC,MOOGLE  ENTERPRISES INC,9611 NORTHERN BOULEVARD,CORONA,11368,NEW YORK CITY,CONVENIENCE STORE,40.75702833500003,-73.87172313599996
16664,NYC,NEW BAXTER DELI INC,81-20 BAXTER AVENUE,ELMHURST,11373,QUEENS,DELICATESSEN,40.74578093400004,-73.88381554899996
16990,NYC,75 GOURMET DELI CORP,7502 JAMAICA AVENUE,WOODHAVEN,11421,NEW YORK CITY,GROCERY SUPERMARKET,40.691422773000056,-73.86637683299995
16588,NYC,A & I DISCOUNT DELI INC.,13-36 BEACH CHANNEL DRIVE,FAR ROCKAWAY,11691,QUEENS,CONVENIENCE STORE,40.60619408200006,-73.75474508099995
16995,NYC,CASTLE SUPPERMARKET CORP,1039 CASTLETON  AVENUE,STATEN ISLAND,10310,STATEN ISLAND,CONVENIENCE STORE,40.63460766600008,-74.11699338999995
16173,NYC,KINGS II DELI & GROCERY INC,2105 AVENUE Z,BROOKLYN,11235,BROOKLYN,CONVENIENCE STORE,40.58867747800008,-73.94802363599996
16189,NYC,M R 1 STOP GROCERY INC.,868 THOMAS BOYLAND  STREET,"BROOKLYN, NEW YORK",11212,BROOKLYN,GROCERY SUPERMARKET,40.661597896000046,-73.91983651399994
16439,NYC,PURA VIDA DELI GROCERY CORP,907 SOUTHERN  BOULEVARD,BRONX,10459,BRONX,CONVENIENCE STORE,40.81968276500004,-73.89280297899995
17010,NYC,JL MINIMARKET INC,591  SUTTER AVENUE,BROOKLYN,11207,NEW YORK CITY,GROCERY SUPERMARKET,40.669148258000064,-73.89696509999999
15955,NYC,DS ASTORIA CONVENIENCE STORE INC,4005 BROADWAY,ASTORIA,11103,NEW YORK CITY,CONVENIENCE STORE,40.758948377000024,-73.91885438699995
16272,NYC,PRAMUKH DELI & GROCERY INC,195 9TH  AVENUE,NEW YORK,10011,MANHATTAN,CONVENIENCE STORE,40.74576616000007,-74.00189493299996
16818,NYC,1701 GROCERY CORP,1701 UNION PORT ROAD,BRONX,10462,BRONX,GROCERY SUPERMARKET,40.84353541300004,-73.86663558099997
16159,NYC,OLYMPIA STAR DELI CORP,761 6TH AVENUE,NEW YORK,10010,NEW YORK CITY,BAR/LOUNGE,40.74440910100003,-73.99174746799997
16335,NYC,MG BUS STOP DELI CORP,271 EAST 206TH STREET,BRONX,10467,NEW YORK CITY,DELICATESSEN,40.874967526000034,-73.87994247999995
16861,NYC,H&A GAS AND CONVENIENCE INC,4102 AVENUE H,BROOKLYN,11210,BROOKLYN,GROCERY SUPERMARKET,40.63228359200008,-73.93665851599997
15678,NYC,49 STREET DELI & GROCERY INC,502 49TH STREET STREET,BROOKLYN,11220,NEW YORK CITY,GROCERY SUPERMARKET,40.64555909300003,-74.00963301999997
16987,NYC,NEW LOOK DELI & GRILL INC,1420 NOSTRAND AVENUE,BROOKLYN,11226,BROOKLYN,GROCERY SUPERMARKET,40.65192633100003,-73.94973696999995
16213,NYC,ANTAR DELI INC,725 NOSTRAND  AVENUE,BROOKLYN,11216,NEW YORK CITY,DELICATESSEN,40.67234648200008,-73.95023465299994
16239,NYC,952 FOOD CORP,952 4TH AVENUE,BROOKLYN,11232,NEW YORK CITY,GROCERY SUPERMARKET,40.65445204300005,-74.00441215699993
16139,NYC,CITY RX INC,9525 QUEENS  BOULEVARD,REGO PARK,11374,NEW YORK CITY,PHARMACY,40.73092737300004,-73.86389074999994
16813,NYC,LIXANDER GROCERY CORP,1060 BELMOMT AVENUE,BROOKLYN,11208,BROOKLYN,GROCERY SUPERMARKET,40.674333717000025,-73.87000630499995
16183,NYC,SMITH CONVENIENCE INC,321  SMITH STREET,BROOKLYN,11231,NEW YORK CITY,CONVENIENCE STORE,40.681103137000036,-73.99424287499994
17006,NYC,BOROUGH PARK VARIETY SHOP INC,4417 13TH  AVENUE,BROOKLYN,11219,BROOKLYN,GROCERY SUPERMARKET,40.63742825700007,-73.98956908499997
16343,NYC,DOWNTOWN DELI II INC/ORANGE DELI,25 ELM  PLACE,BROOKLYN,11201,BROOKLYN,CONVENIENCE STORE,40.68962318900003,-73.98439294999997
16099,NYC,QC'S DELI GROCERY INC,6123 FORT HAMILTON PARKWAY,BROOKLYN,11219,BROOKLYN,CONVENIENCE STORE,40.63220666600006,-74.00686327499994
16639,NYC,BEST WESTERN GOURMENT CORP,686 10TH AVENUE,NEW YORK,10019,NEW YORK CITY,GROCERY SUPERMARKET,40.76351219900005,-73.99261462499999
16618,NYC,111-15 JAMAICA FOOD CORP,111-15 JAMAICA  AVENUE,RICHMOND HILL,11418,QUEENS,GROCERY SUPERMARKET,40.69698440900004,-73.83700548799999
16897,NYC,SARASAMIR CORP.,1490 1ST AVENUE,NEW YORK,10075,NEW YORK CITY,GROCERY SUPERMARKET,40.77142151100003,-73.95330466899998
15569,NYC,BORO PARK DELI GROCERY CORP,4928 NEW UTRECHT AVENUE,BROOKLYN,11219,BROOKLYN,GROCERY SUPERMARKET,40.63636180000003,-73.99479476499994
16932,NYC,THE TOWN GROCERY INC,791 VAN DUZER STREET,STATEN ISLAND,10304,NEW YORK CITY,GROCERY SUPERMARKET,40.62029374600007,-74.08578505899999
16877,NYC,A & J SUPERETTE DELI & GROCERY INC,20419 HOLLIS  AVENUE,SAINT ALBANS,11412,QUEENS,GROCERY SUPERMARKET,40.70691737800007,-73.75323614399997
16098,NYC,MARK OPCO LP,25 EAST 77TH STREET,NEW YORK,10075,NEW YORK CITY,BAR/LOUNGE,40.77527515300005,-73.96365381599998
16793,NYC,LEODANY GROCERY INC,1289 WALTON AVENUE,BRONX,10452,BRONX,GROCERY SUPERMARKET,40.83703989400004,-73.91798550099998
16133,NYC,514 FOOD CORP,514 EAST 20TH  STREET,NEW YORK,10009,NEW YORK CITY,DELICATESSEN,40.733800073000054,-73.97745351599997
17027,NYC,GRUCHY SMOKE SHOP CORP,2409 SECOND AVENUE,NEW YORK,10035,NEW YORK CITY,TOBACCO RETAIL,40.801819796000075,-73.93429714499996
16839,NYC,NYC SMOKE SHOP & GROCERY CORP,809 BROAD WAY,NEW YORK,10036,MANHATTAN,GROCERY SUPERMARKET,40.623464152000054,-74.11343540699994
16464,NYC,477 NEWS & TOBACCO INC,477 MYRTLE AVENUE,BROOKLYN,11205,NEW YORK CITY,GROCERY SUPERMARKET,40.69344404700007,-73.96618286899997
16626,NYC,MONIER INC,608 FLATBUSH  AVENUE,BROOKLYN,11225,BROOKLYN,GROCERY SUPERMARKET,40.658657289000075,-73.96054612999995
16625,NYC,CENTRAL EXPRESS DELI & GROCERY CORP,372 CENTRAL AVENUE,BROOKLYN,11221,BROOKLYN,CONVENIENCE STORE,40.69434593100004,-73.91865451699994
16658,NYC,TIAN TIAN MEI GROCERY,9605 SPRINGFIELD BOULEVARD,QUEENS VILLAGE,11429,NEW YORK CITY,GROCERY SUPERMARKET,40.71837783400008,-73.73526041399998
16136,NYC,BASCO DELI GROCERY CORP,20301 HOLLIS  AVENUE,SAINT ALBANS,11412,QUEENS,CONVENIENCE STORE,40.706607346000055,-73.75465692899996
17034,NYC,WALGREEN EASTERN CO,1242 LIBERTY  AVENUE,BROOKLYN,11208,BROOKLYN,GROCERY SUPERMARKET,40.67909259100003,-73.86302941999998
16544,NYC,ROTANA SMOKE SHOP CORP,188 ORCHARD  STREET,NEW YORK,10002,NEW YORK CITY,GROCERY SUPERMARKET,40.72206582000007,-73.98817044499998
16953,NYC,UNIVERSAL CANDY & GROCERY CORP,1521 WESTCHESTER AVENUE,BRONX,10472,NEW YORK CITY,GROCERY SUPERMARKET,40.82864805100007,-73.87893312799997
16699,NYC,101 CORNER FOOD MART INC.,11101 101ST  AVENUE,SOUTH RICHMOND HILL,11419,QUEENS,GROCERY SUPERMARKET,40.68810799500005,-73.83262763899995
16893,NYC,SMY 46 ENTEPRISES INC,146 WEST 46TH  STREET,NEW YORK,10036,NEW YORK CITY,RESTAURANT/ATUPA,40.75813442600003,-73.98409224199997
16859,NYC,NICHOLAS EXPRESS DELI CORP.,25 ST NICHOLAS  TERRACE,NEW YORK,10027,NEW YORK CITY,DELICATESSEN,40.813149949000035,-73.95165660399994
16116,NYC,TSCAN C STORE INC,2111 HYLAN BOULEVARD,STATEN ISLAND,10306,STATEN ISLAND,CONVENIENCE STORE,40.57895343100006,-74.10133094799994
16930,NYC,28TH SMOKE & ACCESSSORIES LLC,221 WEST 28 STREET,NEW YORK,10001,NEW YORK CITY,GROCERY SUPERMARKET,40.747716886000035,-73.99442003699994
16806,NYC,PAL DELI AND GROCERY INC.,3438 EAST TREMONT AVENUE,BRONX,10465,NEW YORK CITY,GROCERY SUPERMARKET,40.83243953200008,-73.82776503199995
16113,NYC,2012 DELI AND GRILL CORP,1891 FULTON  STREET,BROOKLYN,11233,BROOKLYN,DELICATESSEN,40.67885831900003,-73.92101938499997
16436,NYC,FULTON CORNER STORE CORP,3441 FULTON STREET,BROOKLYN,11208,BROOKLYN,CONVENIENCE STORE,40.68471745700003,-73.86851675299994
16551,NYC,AMAR DESH FOOD INC,87 CHURCH  AVENUE,BROOKLYN,11218,BROOKLYN,GROCERY SUPERMARKET,40.642606724000075,-73.97997091499997
16723,NYC,LIVINGSTON NEWSTAND & CANDY SHOP,208 LIVINGSTON  STREET,BROOKLYN,11201,BROOKLYN,CONVENIENCE/GAS,40.68965465800005,-73.98587201199996
16229,NYC,BUFFALO DELI & GRILL CORP,184 BUFFALO AVENUE,BROOKLYN,11213,BROOKLYN,DELICATESSEN,40.67284300000006,-73.92523628599997
16988,NYC,MANUEL ANTONIO SANTANA,10761 SUTPHIN BOULEVARD,JAMAICA,11435,QUEENS,GROCERY SUPERMARKET,40.69307316800007,-73.79942041699996
16463,NYC,JUANMA MINI MARKET CORP,109 3RD  AVENUE,BROOKLYN,11217,BROOKLYN,GROCERY SUPERMARKET,40.682872417000056,-73.98232412799996
16174,NYC,E & J DELI & GRILL CORP,143-09 95TH AVENUE,JAMAICA,11435,QUEENS,CONVENIENCE STORE,40.69745790600007,-73.80939855199995
16081,NYC,LOVE EXPRESS DELI CORP,214 UTICA AVENUE,BROOKLYN,11213,BROOKLYN,DELICATESSEN,40.67164483100004,-73.93088679299996
17031,NYC,844 GREEN DELI GROCERY INC,844 AMSTERDAM AVENUE,NEW YORK,10025,NEW YORK CITY,GROCERY SUPERMARKET,40.79743972000006,-73.96794726899998
16547,NYC,109 FOOD CENTER CORP,1634 MADISON  AVENUE,NEW YORK,10029,NEW YORK CITY,GROCERY SUPERMARKET,40.79568494600005,-73.94803330399998
16465,NYC,"CVS ALBANY, LLC",800 10TH  AVENUE,NEW YORK,10019,NEW YORK CITY,PHARMACY,40.76698199300006,-73.99008425099998
16781,NYC,CARROLL STREET FOOD CORP,350 UTICA AVENUE,BROOKLYN,11213,NEW YORK CITY,GROCERY SUPERMARKET,40.66601413700005,-73.93142643599998
16872,NYC,SALMA DISCOUNT CORP,304 IRVING AVENUE,BROOKLYN,11237,BROOKLYN,GROCERY SUPERMARKET,40.69894512700006,-73.91431523499995
16924,NYC,BRAVO AT 2301 DELI CORP,2301 7TH  AVENUE,NEW YORK,10030,MANHATTAN,GROCERY SUPERMARKET,40.81543206400005,-73.94347455799993
16320,NYC,AUM NEW YORK CORP,330 WEST 38  STREET,NEW YORK,10018,MANHATTAN,CONVENIENCE STORE,40.75550498200005,-73.99358201799998
16214,NYC,MY BROTHER'S DELI BAGELS INC.,960 BLOOMINGDALE ROAD,STATEN ISLAND,10309,STATEN ISLAND,DELICATESSEN,40.54950855200008,-74.22102310299994
16431,NYC,CHUNNU NEWS INS,700 3RD AVENUE,NEW YORK,10017,NEW YORK CITY,CONVENIENCE STORE,40.75192912500006,-73.97363740499998
16092,NYC,HABIBY DELI & GRILL CORP,692 5TH  AVENUE,BROOKLYN,11215,BROOKLYN,CONVENIENCE STORE,40.66128323600003,-73.99352140999997
16690,NYC,SATKAIVAL USA INC,7152 YELLOWSTONE  BOULEVARD,FOREST HILLS,11375,QUEENS,GROCERY SUPERMARKET,40.72139132800004,-73.85499561499995
16748,NYC,APOLLO 2 DELI AND GROCERY CORP,396 WEST 145TH  STREET,NEW YORK,10031,NEW YORK CITY,GROCERY SUPERMARKET,40.824309818000074,-73.94546756099999
16580,NYC,72 APPLE FARM GROCERY CORP.,434 EAST 72ND STREET,NEW YORK,10021,MANHATTAN,GROCERY SUPERMARKET,40.767074070000035,-73.95431168999994
16661,NYC,"LEDESMIA, AMARILIS",21 CONVENT  AVENUE,NEW YORK,10027,NEW YORK CITY,GROCERY SUPERMARKET,40.813609169000074,-73.95307389299995
16491,NYC,SHINHON FOOD CORPORATION,4038 162ND STREET,FLUSHING,11358,NEW YORK CITY,BAR/LOUNGE,40.76151680500004,-73.80385643899996
16232,NYC,30TH STREET SERVICE STATION INC,309 11 AVENUE,NEW YORK,10001,MANHATTAN,CONVENIENCE STORE,40.75307950600006,-74.00403568999997
16303,NYC,SUNRISE GROCERY DELI INC,4311 BROADWAY,ASTORIA,11103,NEW YORK CITY,GROCERY SUPERMARKET,40.75764606800004,-73.91612880499997
16070,NYC,CLINTON EXPRESS DELI CORP,732 EAST TREMONT AVENUE,BRONX,10457,BRONX,DELICATESSEN,40.844784865000065,-73.88994275899995
16869,NYC,ESTRELLA DELI GROCERY,644 WILSON AVENUE,BROOKLYN,11207,BROOKLYN,GROCERY SUPERMARKET,40.688985642000034,-73.90521474799993
16427,NYC,291 PENNSYLVANIA DELI & GROCERY CORP,291 PENNSYLVANIA AVENUE,BROOKLYN,11207,BROOKLYN,DELICATESSEN,40.67053873900005,-73.89548603799994
16955,NYC,SHAYONA DELI & GROCERY INC,7342 68 AVENUE,QUEENS,11379,QUEENS,GROCERY SUPERMARKET,40.710693707000075,-73.87727690399998
16531,NYC,MIDTOWN GIFTS & SOUVENIRS INC,541 8TH AVENUE,NEW YORK,10018,MANHATTAN,GROCERY SUPERMARKET,40.75421296500008,-73.99202853799994
16495,NYC,639-641 GROCERY CORP,639-641 SOUTHERN  BOULEVARD,BRONX,10455,NEW YORK CITY,GROCERY SUPERMARKET,40.813024495000036,-73.90110515299995
16138,NYC,7-ELEVEN STORE 36038H,845 FLATBUSH AVENUE,BROOKLYN,1122,BROOKLYN,OTHER,40.65173191000008,-73.95901497599993
16783,NYC,ASTORIA GOURMET DELI NY INC,3214 ASTORIA BOULEVARD,ASTORIA,11102,QUEENS,GROCERY SUPERMARKET,40.76987277200004,-73.91727834099999
16006,NYC,SUPER AMIGO DELI GROCERY INC,860 EAST 180 STREET,BRONX,10460,BRONX,DELICATESSEN,40.84535481100005,-73.88326308599994
16900,NYC,251 SUNSHINE DELI GROCERY CORP,251 WEST 231ST STREET,BRONX,10463,BRONX,GROCERY SUPERMARKET,40.87993619700006,-73.90673693499997
16037,NYC,LAMIA FOOD CORP,525 EAST 7TH STREET,BROOKLYN,11218,NEW YORK CITY,GROCERY SUPERMARKET,40.63889683000008,-73.97182499999997
16384,NYC,SIKDER & SONS INC,193 SCHERMERHORN STREET,BROOKLYN,11201,NEW YORK CITY,GROCERY SUPERMARKET,40.689117347000035,-73.98633939099994
17025,NYC,716 ROCKAWAY GROCERY CORP,716 ROCKAWAY AVENUE,BROOKLYN,11212,BROOKLYN,CONVENIENCE STORE,40.66230191300008,-73.90888501299997
16843,NYC,GRAB AND GO CANDY GROCERY CORP,8945 ELMHURST AVENUE,ELMHURST,11373,QUEENS,GROCERY SUPERMARKET,40.74806771100003,-73.87649949299998
16545,NYC,OCEAN DELI CORP,1990 LEXINGTON  AVENUE,NEW YORK,10035,NEW YORK CITY,GROCERY SUPERMARKET,40.80208427200006,-73.93913740699998
16739,NYC,DECATOR DELI CORP,2641 DECATOR AVENUE,BRONX,10458,NEW YORK CITY,DELICATESSEN,40.86380171300004,-73.88989380699996
16680,NYC,4 BROTHERS DELI & GROCERY CORP.,284 198TH STREET,BRONX,10458,BRONX,GROCERY SUPERMARKET,40.86872131500007,-73.88862125099996
16050,NYC,111 WEST 45TH ST,109 WEST 45TH STREET,NEW YORK,10036,NEW YORK CITY,DELICATESSEN,40.757086611000034,-73.98336961099994
16792,NYC,24/7 GROCERY DELI & CONVENIENCE INC,783 BECK STREET,NEW YORK,10455,BRONX,GROCERY SUPERMARKET,40.81706264600007,-73.89802223899994
16201,NYC,MEGA NINETY NINE CENT LLC,1030 E TREMONT  AVENUE,BRONX,10460,BRONX,DISCOUNT STORE,40.840304554000056,-73.88079215399995
16102,NYC,2918 STAR DELI CORP,2918 BEVERLEY  ROAD,BROOKLYN,11226,BROOKLYN,DELICATESSEN,40.645083483000064,-73.94920898399994
16450,NYC,2ND AVENUE CONVENIENCE INC,7102 MYRTLE AVENUE,GLENDALE,11385,NEW YORK CITY,DELICATESSEN,40.70199299800004,-73.87985856199998
16119,NYC,"NEW METRO GOURMET DELI, CORP",100-01 METROPOLITAN AVENUE,FOREST HILLS,11375,QUEENS,CONVENIENCE STORE,40.71086737200005,-73.85313636999996
16603,NYC,J GROCERY FOOD CORP,246 AVENUE U,BROOKLYN,11223,BROOKLYN,GROCERY SUPERMARKET,40.59674297200007,-73.97523768299999
15847,NYC,HARMONEY DELI AND GROCERY CORP,665 MAGENTA STREET,BRONX,10467,BRONX,CONVENIENCE STORE,40.87533816600006,-73.86836989599993
16083,NYC,LAZY BOY DELI CORP,12822 LIBERTY  AVENUE,S RICHMOND HILL,11419,NEW YORK CITY,DELICATESSEN,40.68921408600005,-73.81642089199994
16528,NYC,7/10 DELI MARKET CORP.,898 GERARD AVENUE,BRONX,10452,BRONX,GROCERY SUPERMARKET,40.82809917800006,-73.92455661799994
16624,NYC,"RAGOONANAN, DAVE",2515 86TH STREET,BROOKLYN,11214,BROOKLYN,GROCERY SUPERMARKET,40.59759497700003,-73.98660513299996
16571,NYC,WIN DELI AND GROCERY INC,541 ACADEMY STREET,NEW YORK,10034,NEW YORK CITY,GROCERY SUPERMARKET,40.86261869700007,-73.92258236599997
16607,NYC,JAS FOSTER MART AVE,5916 FOSTER AVENUE,BROOKLYN,11234,NEW YORK CITY,GROCERY SUPERMARKET,40.63984557400005,-73.92002518499999
16876,NYC,ULTIMATE DELI GROCERY CORP,2017 AMSTERDAM AVENUE,NEW YORK,10023,MANHATTAN,GROCERY SUPERMARKET,40.83479738500006,-73.94056927499997
16749,NYC,BAISLEY DELI INC,11707 GUY R. BREWER BOULEVARD,JAMAICA,11434,QUEENS,DELICATESSEN,40.68397734300004,-73.78280223799999
16251,NYC,LUCKY YOU 123 INC,8637 BROADWAY,ELMHURST,11373,NEW YORK CITY,CONVENIENCE STORE,40.73753561900003,-73.87720100999996
16667,NYC,10-01 DELI AND FOOD CORP,1001 40TH AVENUE,LONG ISLAND CITY,11101,NEW YORK CITY,GROCERY SUPERMARKET,40.75684212300007,-73.94422915599995
16501,NYC,2363 ROSE WOOD GROCERY INC,3263 WHITE PLAINS  ROAD,BRONX,10467,MANHATTAN,GROCERY SUPERMARKET,40.87254709500007,-73.86715255799999
16043,NYC,545 E 137TH ST GROCERY CORP,545 E 137TH STREET,BRONX,10454,BRONX,GROCERY SUPERMARKET,40.806386357000065,-73.91852980499993
16441,NYC,SKY HIGH DELI GROCERY CORP,2112 NOSTRAND AVENUE,BROOKLYN,11210,BROOKLYN,CONVENIENCE STORE,40.63386755200003,-73.94779635699996
16622,NYC,RUANE DELI INC,2 CENTER EDGEWATER PARK DRIVE,BRONX,10465,NEW YORK CITY,GROCERY SUPERMARKET,40.82240514000006,-73.81093395399995
16331,NYC,ABDOULKARIM YAFAI A,159 BALTIC  STREET,BROOKLYN,11201,BROOKLYN,DELICATESSEN,40.68745762700007,-73.99810195799995
16935,NYC,NIVA NOVOTEL GIFT SHOP INC,226 WEST 52ND STREET,NEW YORK,10019,MANHATTAN,GROCERY SUPERMARKET,40.76282453400006,-73.98355143499998
16348,NYC,165 GOURMET DELI CORP,275 E 165  STREET,BRONX,10456,BRONX,DELICATESSEN,40.829227321000076,-73.91615095099996
16257,NYC,AAA GOURMET DELI INC,3001 EASTCHESTER ROAD,BRONX,10469,NEW YORK CITY,DELICATESSEN,40.869614230000025,-73.84278876199994
16757,NYC,D HEIGHTS DELI & GROCERY CORP,6902 13TH AVENUE,BROOKLYN,11228,BROOKLYN,GROCERY SUPERMARKET,40.62363300000004,-74.00401121399995
16656,NYC,LA FUENTE DELI GROCERY LLC,9818 NORTHERN BOULEVARD,CORONA,11368,QUEENS,BAR/LOUNGE,40.75717286100007,-73.86973823199997
16178,NYC,DEJA VU DELI CORP,11745 FARMERS  BOULEVARD,ST.ALBANS,11412,NEW YORK CITY,DELICATESSEN,40.69039477200005,-73.76218511199994
16883,NYC,WEST 14 CANDY STORE INC,256 W 14TH STREET,NEW YORK,10011,NEW YORK CITY,GROCERY SUPERMARKET,40.73920693500003,-74.00130849599998
16153,NYC,XAVIER DELI & GROCERY INC,2425 WEBSTER AVENUE,BRONX,10458,NEW YORK CITY,GROCERY SUPERMARKET,40.859460667000064,-73.89353449699996
16827,NYC,JYL PETROLEUM & SERVICES LLC,1143 CLARKSON AVENUE,BROOKLYN,11212,BROOKLYN,CONVENIENCE/GAS,40.66093474200005,-73.92044594199996
16565,NYC,ANTONIO MELENDEZ,145 EUCLID  AVENUE,BROOKLYN,11208,BROOKLYN,GROCERY SUPERMARKET,40.68510907600006,-73.87458568699998
16118,NYC,EPRESS MINI MART INC,13122 140  STREET,JAMAICA,11436,NEW YORK CITY,CONVENIENCE STORE,40.67001891100006,-73.79890291999999
15688,NYC,BEN ARASH INC,6013 4 AVENUE,BROOKLYN,11220,BROOKLYN,CONVENIENCE STORE,40.640478459000065,-74.01864915199997
16090,NYC,97 AVE S S MINI-MART CORP,6304 BAY  PARKWAY,BROOKLYN,11204,BROOKLYN,GROCERY SUPERMARKET,40.61490315300006,-73.98036136899998
16326,NYC,"SPICE CORNER DELI, INC",97 LEXINGTON  AVENUE,NEW YORK,10016,NEW YORK CITY,DELICATESSEN,40.74191136200005,-73.98295468099997
16968,NYC,10TH STREET FOOD CORP,392 EAST 10TH  STREET,NEW YORK,10009,NEW YORK CITY,GROCERY SUPERMARKET,40.725927237000064,-73.97775064799998
16620,NYC,129 CARIBE CORP,129 WEST TREMONT AVENUE,BRONX,10453,BRONX,GROCERY SUPERMARKET,40.85003526500003,-73.91395413899994
16056,NYC,BROADWAY CONVENIENCE INC,215 92ND STREET,NEW YORK,10025,NEW YORK CITY,CONVENIENCE STORE,40.79174388100006,-73.97272762099993
16157,NYC,ORGANIC DELI & GROCERY II CORP,69 PUTNAM AVENUE,BROOKLYN,1123,NEW YORK CITY,GROCERY SUPERMARKET,40.68297027700004,-73.95922273399998
16469,NYC,ANYA GORCERY INC,27  GIFFORDS  LANE,STATEN ISLAND,10308,NEW YORK CITY,GROCERY SUPERMARKET,40.55163617000005,-74.15046286999996
16192,NYC,ROCKAWAY DELI & GROCERY CORP,411 BEACH 30TH  STREET,FAR ROCKAWAY,11691,QUEENS,DELICATESSEN,40.59753436900007,-73.76331567899996
16940,NYC,HOLLY DELI GROCERY INC,2520 LINDEN BOULEVARD,BROOKLYN,11208,BROOKLYN,GROCERY SUPERMARKET,40.66703631100006,-73.87098302199996
16562,NYC,GG&J FOOD CENTER LLC,151 W 228TH  STREET,BRONX,10463,BRONX,GROCERY SUPERMARKET,40.87736502900003,-73.90920320399994
16867,NYC,FULL STOP GOURMET DELI INC,3801 WHITE PLAINS ROAD,BRONX,10467,BRONX,GROCERY SUPERMARKET,40.88372651200007,-73.86282078999994
16884,NYC,95 DELI & GRILL INC,9420 JAMAICA AVENUE,WOODHAVEN,11421,QUEENS,GROCERY SUPERMARKET,40.694183922000036,-73.85055238199999
16989,NYC,SAHARA OF NY INC,10 DANIEL LOW  TERRACE,STATEN ISLAND,10301,NEW YORK CITY,GROCERY SUPERMARKET,40.64438183200008,-74.08224649899995
16814,NYC,AL-JANNAT INC,552 LAGUARDIA PLACE,NEW YORK,10012,NEW YORK CITY,CONVENIENCE STORE,40.728958171000045,-73.99822907699996
16830,NYC,HEGEMAN GOURMET DELI INC,588 HEGEMAN  AVENUE,BROOKLYN,11207,BROOKLYN,CONVENIENCE STORE,40.66066433800006,-73.88986933099994
16428,NYC,WALGREEN EASTERN CO INC,1134 EAST NEW YORK AVENUE,BROOKLYN,11212,BROOKLYN,PHARMACY,40.66622509900003,-73.92468965099994
16258,NYC,1978 FIRST AVENUE NEWS STAND CORP,1978 1ST AVENUE,NEW YORK,10029,MANHATTAN,STAND,40.786753332000046,-73.94214101199998
17018,NYC,181ST CANDY & DELI CORP.,110 EAST 181ST STREET,BRONX,10453,BRONX,GROCERY SUPERMARKET,40.85481311700005,-73.90336504599998
16400,NYC,SUDANCO GAS STATION CORP,165 3RD AVENUE,BROOKLLYN,11217,BROOKLYN,CONVENIENCE STORE,40.68104051600005,-73.98356656699997
16719,NYC,PALAX DELI & GROCERY,5222 4TH AVENUE,BROOKLYN,11220,NEW YORK CITY,GROCERY SUPERMARKET,40.64495294300008,-74.01429122099995
16373,NYC,JT GROCERY CORP,438 TROY AVENUE,BROOKLYN,11203,BROOKLYN,CONVENIENCE STORE,40.66342315600008,-73.93724361399995
16351,NYC,E&A MINI GROCERY CORP,1810 WHITE PLAINS  ROAD,BRONX,10462,BRONX,CONVENIENCE STORE,40.84566251200005,-73.86623813399996
16810,NYC,172 KINGSTON FOOD CORP,17241 HILLSIDE  AVENUE,JAMAICA,11432,QUEENS,CONVENIENCE STORE,40.712068112000054,-73.78931902699998
16190,NYC,RAJIH DELI & GROCERY INC,689A NOSTRAND  AVENUE,BROOKLYN,11216,BRONX,CONVENIENCE STORE,40.67366779500003,-73.95011091799995
16430,NYC,WYCKOFF GOURMENT DELI GROCERY INC,262 WYCKOFF AVENUE,BROOKLYN,11237,BROOKLYN,CONVENIENCE STORE,40.70026567700006,-73.91244455299994
16939,NYC,J EDWIN FOOD CORP,58-60 LORRAINE  STREET,BROOKLYN,11231,NEW YORK CITY,GROCERY SUPERMARKET,40.67447776500006,-74.00738199599994
16146,NYC,"A Z DELI, INC",1093A SOUTHERN  BOULEVARD,BRONX,10459,BRONX,CONVENIENCE STORE,40.82604866600008,-73.89197825699995
16538,NYC,AZ FLATBUSH INC,377 FLATBUSH AVENUE,BROOKLYN,11238,BROOKLYN,GROCERY SUPERMARKET,40.676314664000074,-73.97179004999998
16945,NYC,"SMOKE SCENE, INC",901 FIRST  AVENUE,NEW YORK,10022,NEW YORK CITY,GROCERY SUPERMARKET,40.75413345000004,-73.96599825799996
16263,NYC,9TH AVE GROCERY CORP,572 9TH AVE AVENUE,NEW YORK,10036,NEW YORK CITY,GROCERY SUPERMARKET,40.75815356500004,-73.99280288999995
16231,NYC,PLEASANT FINEST DELI CORP,375 PLEASANT AVENUE,NEW YORK,10035,NEW YORK CITY,DELICATESSEN,40.79747002400006,-73.93143692499996
16034,NYC,GREEN LIGHT DELI INC,735 KNICKERBOCKER AVENUE,BROOKLYN,11221,BROOKLYN,CONVENIENCE STORE,40.69378530900008,-73.90948642899997
16552,NYC,SMART SHOP CONVENIENCE STORE INC,3004 STEINWAY STREET,ASTORIA,11103,QUEENS,GROCERY SUPERMARKET,40.76374878000007,-73.91516662799995
16623,NYC,MALYAN INC,1402 GRAVESEND NECK  ROAD,BROOKLYN,11229,NEW YORK CITY,GROCERY SUPERMARKET,40.59465317000007,-73.95642480299995
16187,NYC,3220 WESTCHESTER AVENUE INC,3220 WESTCHESTER AVENUE,BRONX,10461,BRONX,CONVENIENCE STORE,40.85177406100007,-73.82947182799995
16324,NYC,NYC GOURMET DELI INC,853 9TH AVENUE,NEW YORK,10019,NEW YORK CITY,DELICATESSEN,40.76693886800007,-73.98647692399999
16936,NYC,LOS SURES DELI GROCERY CORP,360 BEDFORD AVENUE,BROOKLYN,11249,NEW YORK CITY,GROCERY SUPERMARKET,40.71206903700005,-73.96287836299996
16274,NYC,NEW LELAND DELI GROCERY CORP,855 PROSPECT AVENUE,BRONX,10459,NEW YORK CITY,GROCERY SUPERMARKET,40.82017345500003,-73.90145240499999
16163,NYC,1560 DELI GROCERY CORP,1560 EAST 174TH  STREET,BRONX,10472,BRONX,DELICATESSEN,40.833994354000026,-73.87808928099997
16141,NYC,MI CASITA DELI INC,1665 LEXINGTON AVENUE,NEW YORK,10029,MANHATTAN,CONVENIENCE STORE,40.791311344000064,-73.94691404799994
16701,NYC,215 FINE FOOD DELI CORP,215 4TH AVENUE,BROOKLYN,11215,BROOKLYN,GROCERY SUPERMARKET,40.677241724000055,-73.98303393799995
16287,NYC,PCG CORP,1375 PROSPECT AVENUE,BRONX,10459,BRONX,CONVENIENCE STORE,40.83082293700005,-73.89702221099998
16378,NYC,GHAMDAN GOURMET DELI INC,125 MALCOLM X  BEND,BROOKLYN,11221,MANHATTAN,DELICATESSEN,40.68920784300008,-73.93027640699995
16780,NYC,"JAMAL, MOHAMMAD E",26A EAST 17TH STREET,NEW YORK,10003,MANHATTAN,GROCERY SUPERMARKET,40.737219785000036,-73.99066498099995
16651,NYC,THREE STAR DELI CORP,163 DECKER  AVENUE,STATEN ISLAND,10302,NEW YORK CITY,GROCERY SUPERMARKET,40.62871822400007,-74.13663030299995
16209,NYC,M AND R EXPRESS DELI INC,2481 PITKIN AVENUE,BROOKLYN,11208,BROOKLYN,GROCERY SUPERMARKET,40.674157722000075,-73.88067443499995
16937,NYC,ALEX MINI MARKET CORP,2865 WHITE PLAINS  ROAD,BRONX,10467,NEW YORK CITY,BAR/LOUNGE,40.867642147000026,-73.86728711499995
16502,NYC,BROOKHAVEN DELI GROCERY CORP.,1039 BEACH 20TH STREET,FAR ROCKAWAY,11691,QUEENS,GROCERY SUPERMARKET,40.603061301000025,-73.75319915999995
16834,NYC,ISABELA PHOENIX CORP,10740 QUEENS BOULEVARD,FOREST HILLS,11375,NEW YORK CITY,CONVENIENCE STORE,40.721517206000044,-73.84484941699998
16846,NYC,89 DELI & GROCERY INC,164-03 89TH AVENUE,JAMAICA,11432,QUEENS,CONVENIENCE STORE,40.70755725600003,-73.79688071899994
16473,NYC,DUANE READE #14494,245 1ST  AVENUE,NEW YORK,10003,MANHATTAN,PHARMACY,40.73169291100004,-73.98237431899997
16283,NYC,LACONIA DISCOUNT DELI GROCERY CORP,4043 LACONIA  AVENUE,BRONX,10466,NEW YORK CITY,GROCERY SUPERMARKET,40.88614849100003,-73.84804764999996
16931,NYC,EM AND EN DELI GROCERY INC,2162 FOREST  AVENUE,STATEN ISLAND,10303,STATEN ISLAND,CONVENIENCE STORE,40.62662376000003,-74.16153309599997
16638,NYC,SWEET CORNER DELI MARKET CORP.,3100 PARK AVENUE,BRONX,10451,BRONX,CONVENIENCE STORE,40.82344627400005,-73.91817431699997
16922,NYC,874 BROADWAY DELI INC.,874 BROADWAY,BROOKLYN,11206,BROOKLYN,CONVENIENCE STORE,40.69829475900008,-73.93765271699993
16376,NYC,FLOR AZTECA DELI & GROCERY INC,4812 104TH STREET,CORONA,11368,NEW YORK CITY,BAR/LOUNGE,40.744685333000064,-73.85907010199998
16915,NYC,T&J DELI CORP.,3565 BOSTON ROAD,BRONX,10469,BRONX,DELICATESSEN,40.87838370600008,-73.84416875299996
16507,NYC,GOUR HOT FOOD CORP,3152 137TH  STREET,FLUSHING,11354,NEW YORK CITY,OTHER,40.768097408000074,-73.83093295299994
16319,NYC,FABULOUS BOUTIQUE INC,88A DELANCEY  STREET,NEW YORK,10002,NEW YORK CITY,GROCERY SUPERMARKET,40.71903856100005,-73.98942555999997
16108,NYC,RIMO DELI GROCERY CORP.,2504 ADAM CLAYTON POWELL BOULEVARD,NEW YORK,10039,MANHATTAN,DELICATESSEN,40.824526296000045,-73.93712825599994
16059,NYC,FAISAL EXPRESS ONE DELI CORP,3083 MIDDLETOWN ROAD,BRONX,10461,BRONX,CONVENIENCE STORE,40.84487694200004,-73.82728250099996
16405,NYC,OVERTIME DELI FOOD CORP,552 CENTRAL  AVENUE,BROOKLYN,11207,BROOKLYN,DELICATESSEN,40.69037495800006,-73.91164499699994
16985,NYC,GREENE FINEST DELI & GROCERY INC,116 DEKALB AVENUE,BROOKLYN,11201,BROOKLYN,GROCERY SUPERMARKET,40.68981198000006,-73.97785053999996
16410,NYC,CYPRESS  MINIMARKET CORP,1091 CYPRESS  AVENUE,RIDGEWOOD,11385,NEW YORK CITY,CONVENIENCE STORE,40.696442051000076,-73.90007091099994
16688,NYC,84 NEWS II INC.,8430 ROOSEVELT AVENUE,JACKSON HEIGHTS,11372,QUEENS,CONVENIENCE STORE,40.74790337100006,-73.88128750599998
16129,NYC,ARSO 2011 CORP.,350 TOMPKINS AVENUE,BROOKLYN,11216,BROOKLYN,CONVENIENCE STORE,40.685603263000075,-73.94440581899994
16074,NYC,OPTIMUN GOURMENT & MARKET CORP,243  BROOME  STREET,NEW YORK,10002,NEW YORK CITY,GROCERY SUPERMARKET,40.71790369900003,-73.98960871299994
16049,NYC,MAT DELI & GROCERY CORP,14007 ROCKAWAY BOULEVARD,JAMAICA,11436,NEW YORK CITY,DELICATESSEN,40.67431856500008,-73.80037848599994
16766,NYC,LA JOYA FOOD MARKET CORP.,103 HEGEMAN AVENUE,BROOKLYN,11212,BROOKLYN,CONVENIENCE STORE,40.65619801200006,-73.90796424199993
16041,NYC,JASIYA JANNAT DELI GROCERY INC,3643 BRUNCKER  BOULEVARD,BRONX,10461,NEW YORK CITY,GROCERY SUPERMARKET,40.84298789800005,-73.83194493099995
16698,NYC,WEST 174 GOURMET DELI & GROCERY CORP,530 WEST 174TH STREET,NEW YORK,10033,MANHATTAN,GROCERY SUPERMARKET,40.84398466500005,-73.93520500699998
16158,NYC,CANCAS GROCERY CORP,1276 FLATBUSH AVENUE,BROOKLYN,11226,BROOKLYN,GROCERY SUPERMARKET,40.63902853500008,-73.95423243399995
16702,NYC,NIVA MIDTOWN GIFT SHOP INC,440 W  57TH  STREET,NEW YORK,10019,NEW YORK CITY,GROCERY SUPERMARKET,40.768554298000026,-73.98731144599998
16044,NYC,CARRIZAL GROCERY INC.,161 MANHATTAN AVENUE,BROOKLYN,11206,BROOKLYN,GROCERY SUPERMARKET,40.70850483500004,-73.94515642299996
16659,NYC,R & S MINIMART INC,1836 ROCKAWAY PARKWAY,BROOKLYN,11230,BROOKLYN,GROCERY SUPERMARKET,40.637336334000054,-73.89366723499995
16424,NYC,ALYAANS CORP,727 FULTON  STREET,BROOKLYN,11217,BROOKLYN,CONVENIENCE STORE,40.68672683700004,-73.97544980999999
16419,NYC,UNITY GROCERY CORP,876 NOSTRAND AVENUE,BROOKLYN,11225,NEW YORK CITY,GROCERY SUPERMARKET,40.66820417500003,-73.95067638999996
16360,NYC,TOMPKINS DELI GROCERY INC,52 TOMPKINS AVENUE,BROOKLYN,11206,NEW YORK CITY,DELICATESSEN,40.69803251400003,-73.94686509499996
16957,NYC,C CAM DELI GROCERY CORP,798 EAST 170TH STREET,BRONX,10459,BRONX,GROCERY SUPERMARKET,40.83306309300008,-73.89613757099994
16866,NYC,BEER TOWN & SODA INC.,13526A CROSSBAY BOULEVARD,OZONE PARK,11417,QUEENS,GROCERY SUPERMARKET,40.67326859900004,-73.84339682499996
16299,NYC,THREE 1862 CIGARS LLC,593 WASHINGTON  AVENUE,BROOKLYN,11238,BROOKLYN,CONVENIENCE STORE,40.679857182000035,-73.96412548399996
16815,NYC,TOBACCO & GIFT EMPORIUM CORP,3277 RICHMOND AVENUE,STATEN ISLAND,10312,STATEN ISLAND,TOBACCO RETAIL,40.559251836000044,-74.16948685599993
16185,NYC,BARBARA & DOMINGO CORP,1071 CYPRESS AVENUE,RIDGEWOOD,11385,QUEENS,CONVENIENCE STORE,40.69686770200008,-73.90062613299995
16451,NYC,685 METRO DELI CORP,685 METROPOLITAN AVENUE,BROOKLYN,11211,BROOKLYN,DELICATESSEN,40.71436746900008,-73.94622288599999
16356,NYC,GRAB & GO GOURMET DELI INC,3920 BROAD WAY,NEW YORK,10032,MANHATTAN,DELICATESSEN,40.838551591000055,-73.94141389399994
16774,NYC,K&D MERRICK BLVD INC,1243 EAST TREMONT AVENUE,BRONX,10460,BRONX,GROCERY SUPERMARKET,40.839727614000026,-73.87149002899997
16731,NYC,1930 BARTOW AVE PETROLEUM LLC,1930 BARTOW AVENUE,BRONX,10469,BRONX,CONVENIENCE STORE,40.86797962300005,-73.83414932299996
16817,NYC,H&R DELI GROCERY INC,345 VICTORY BOULEVARD,STATEN ISLAND,10310,NEW YORK CITY,GROCERY SUPERMARKET,40.633605232000036,-74.08608758099996
16791,NYC,MAJED K. ALGHAYTHI/750 CANDY STORE,750 WEST 181 STREET,NEW YORK,10033,MANHATTAN,CONVENIENCE STORE,40.85071662000007,-73.93768690699994
16317,NYC,NEW JUBILEE NEW 11 INC,135 WILLIAM STREET,NEW YORK,10038,NEW YORK CITY,CONVENIENCE/GAS,40.70941278600003,-74.00662317499996
16470,NYC,SAMMY'S CANDY & SUPPLIES INC.,5721 SHORE FRONT PARKWAY,ARVERNE,11692,QUEENS,CONVENIENCE STORE,40.586732606000055,-73.80203940599995
16307,NYC,SHREEJI RAJIPO INC,7169 YELLOWSTONE  BOULEVARD,FOREST HILLS,11375,QUEENS,CONVENIENCE STORE,40.72088513400007,-73.85524015799996
16137,NYC,IRVING GOURMENT DELI INC,350 IRVING AVENUE,BROOKLYN,11237,NEW YORK CITY,DELICATESSEN,40.69788565700003,-73.91246436699998
16121,NYC,SUPER SOP DELI INC,1105 LAFAYETTE AVENUE,BROOKLYN,11221,MANHATTAN,GROCERY SUPERMARKET,40.69247620800007,-73.92699236099998
16184,NYC,AAA GAS & STORE INC,91 WESTCHESTER  SQUARE,BRONX,10461,BRONX,CONVENIENCE STORE,40.84081905700003,-73.84229716599998
16977,NYC,THE CANGRI FOOD CORP,1683 MADISON STREET,RIDGEWOOD,11385,QUEENS,DELICATESSEN,40.70046049500007,-73.90775607099994
16575,NYC,TWO BROTHERS GOURMET DELI CORP,912 SOUNDVIEW AVENUE,BRONX,10473,NEW YORK CITY,GROCERY SUPERMARKET,40.82331340300004,-73.86812979599995
16521,NYC,181 PARK DELI CORP.,508 WEST 181ST STREET,NEW YORK,10033,MANHATTAN,GROCERY SUPERMARKET,40.84830470800006,-73.93138234099996
16390,NYC,DTY DELI GROCERY CORP,14532 LAKEWOOD AVENUE,QUEENS,11435,QUEENS,GROCERY SUPERMARKET,40.69078056400008,-73.80255570299994
16429,NYC,JOSE MERCADO,12318 JAMAICA AVENUE,RICHMOND HILL,11418,NEW YORK CITY,GROCERY SUPERMARKET,40.70067208100005,-73.82707631699998
16054,NYC,11706 MERRICK BLVD GROCERY CORP,11706 MERRICK  BOULEVARD,JAMAICA,11434,QUEENS,CONVENIENCE STORE,40.686786279000046,-73.77466681199996
16590,NYC,ROCA GROCERY CORP,146-14 ROCKAWAY  BOULEVARD,JAMAICA,11436,NEW YORK CITY,GROCERY SUPERMARKET,40.673423435000075,-73.79114279699996
16600,NYC,JAMAICA GOURMET DELI INC,16834 JAMAICA AVENUE,JAMAICA,11432,QUEENS,CONVENIENCE STORE,40.70671341000008,-73.79134326899998
16971,NYC,"SAHIL MINIMART, INC.",3003 ASTORIA BOULEVARD,ASTORIA,11102,QUEENS,GROCERY SUPERMARKET,40.77024781800003,-73.91862304799997
15586,NYC,WAVE EXPRESS FOOD MART INC,1596 WHITE PLAINS  ROAD,BRONX,10462,BRONX,CONVENIENCE STORE,40.84095156500007,-73.86438159899996
16368,NYC,BAY STOP FRUIT & VEGETABLE INC,2608 EAST 14TH  STREET,BROOKLYN,11235,NEW YORK CITY,GROCERY SUPERMARKET,40.58761334600007,-73.95526509699994
16354,NYC,RAHUFF HOT SPOT DELI & GROCERY CORP,1465 AMSTERDAM AVENUE,NEW YORK,10027,NEW YORK CITY,GROCERY SUPERMARKET,40.817111598000054,-73.95350514099994
16486,NYC,QUEENIE'S NEWS & STATIONERY INC,1278 1ST AVENUE,NEW YORK,10065,NEW YORK CITY,CONVENIENCE STORE,40.76564162900007,-73.95754488099993
16249,NYC,M & L DELI GROCERY CORP,404 MARCUS GARVEY BOULEVARD,"BROOKLYN, NY",11216,BROOKLYN,GROCERY SUPERMARKET,40.68305307500003,-73.93808512999993
16244,NYC,RICHMOND COUNTY COUNTRY CLUB,135 FLAGG  PLACE,STATEN ISLAND,10304,STATEN ISLAND,CONVENIENCE STORE,40.58804109700003,-74.10402449699995
16980,NYC,WEST VILLAGE GROCERY INC,31 JANE  STREET,NEW YORK,10011,MANHATTAN,CONVENIENCE STORE,40.73815726000004,-74.00375063099995
16790,NYC,ME QUICK STOP GROCERY & CANDY CORP,4314 BROADWAY,NEW YORK,10033,NEW YORK CITY,DELICATESSEN,40.851879437000036,-73.93483602899994
16233,NYC,M&S DELI CORP,1294 NOSTRAND AVENUE,BROOKLYN,11226,BROOKLYN,DELICATESSEN,40.65528088100007,-73.95009657799994
17017,NYC,STANLEY MINI MARKET CORP,689 STANLEY AVENUE,BROOKLYN,11207,BROOKLYN,GROCERY SUPERMARKET,40.65966664100006,-73.88326191999994
16974,NYC,BARBARA DELI FOOD CORP,1027 WALTON AVENUE,BRONX,10452,BRONX,GROCERY SUPERMARKET,40.83106653300007,-73.92189936299997
16012,NYC,MAMAS DELI INC,6123 FRESH POND  ROAD,MIDDLE VILLAGE,11379,NEW YORK CITY,DELICATESSEN,40.71391058000006,-73.90092674899995
16984,NYC,REEMA GROCERY STORE INC,9604 ROOSEVELT AVENUE,CORONA,11368,QUEENS,GROCERY SUPERMARKET,40.74917160000007,-73.86927429199994
